{"config": {"view": {"continuousWidth": 300, "continuousHeight": 300}}, "vconcat": [{"mark": {"type": "line"}, "encoding": {"x": {"field": "date_time", "timeUnit": "yearmonth", "title": "Month/Years", "type": "temporal"}, "y": {"aggregate": "count", "title": "Sightings per Month", "type": "quantitative"}}, "height": 250, "name": "view_8", "title": "U.F.O Sightings Over Time", "width": 650}, {"mark": {"type": "bar"}, "encoding": {"color": {"field": "object_shape", "legend": null, "scale": {"scheme": "rainbow"}, "type": "nominal"}, "tooltip": [{"field": "object_shape", "type": "nominal"}, {"aggregate": "count", "type": "quantitative"}], "x": {"aggregate": "count", "title": "Sightings", "type": "quantitative"}, "y": {"field": "object_shape", "sort": "-x", "title": "Object Shape", "type": "nominal"}}, "height": 300, "title": "U.F.O Shapes Over the Years", "transform": [{"filter": {"param": "param_8"}}], "width": 650}], "data": {"name": "data-3b9405644a312b09bb77c37d79f565a2"}, "params": [{"name": "param_8", "select": {"type": "interval", "encodings": ["x"]}, "views": ["view_8"]}], "$schema": "https://vega.github.io/schema/vega-lite/v5.20.1.json", "datasets": {"data-3b9405644a312b09bb77c37d79f565a2": [{"date_time": "1949-10-10T20:30:00", "city": "san marcos", "state": "tx", "country": "us", "object_shape": "cylinder", "duration_seconds": 2700.0, "duration": "45 minutes", "comments": "This event took place in early fall around 1949-50. It occurred after a Boy Scout meeting in the Baptist Church. The Baptist Church sit", "occurance_date": "4/27/2004", "latitude": 29.8830556, "longitude": -97.9411111, "year": 1949, "month": "1949-10-01T00:00:00"}, {"date_time": "1949-10-10T21:00:00", "city": "lackland afb", "state": "tx", "country": null, "object_shape": "light", "duration_seconds": 7200.0, "duration": "1-2 hrs", "comments": "1949 Lackland AFB&#44 TX.  Lights racing across the sky &amp; making 90 degree turns on a dime.", "occurance_date": "12/16/2005", "latitude": 29.38421, "longitude": -98.581082, "year": 1949, "month": "1949-10-01T00:00:00"}, {"date_time": "1955-10-10T17:00:00", "city": "chester (uk/england)", "state": null, "country": "gb", "object_shape": "circle", "duration_seconds": 20.0, "duration": "20 seconds", "comments": "Green/Orange circular disc over Chester&#44 England", "occurance_date": "1/21/2008", "latitude": 53.2, "longitude": -2.916667, "year": 1955, "month": "1955-10-01T00:00:00"}, {"date_time": "1956-10-10T21:00:00", "city": "edna", "state": "tx", "country": "us", "object_shape": "circle", "duration_seconds": 20.0, "duration": "1/2 hour", "comments": "My older brother and twin sister were leaving the only Edna theater at about 9 PM&#44...we had our bikes and I took a different route home", "occurance_date": "1/17/2004", "latitude": 28.9783333, "longitude": -96.6458333, "year": 1956, "month": "1956-10-01T00:00:00"}, {"date_time": "1960-10-10T20:00:00", "city": "kaneohe", "state": "hi", "country": "us", "object_shape": "light", "duration_seconds": 900.0, "duration": "15 minutes", "comments": "AS a Marine 1st Lt. flying an FJ4B fighter/attack aircraft on a solo night exercise&#44 I was at 50&#44000&#39 in a &quot;clean&quot; aircraft (no ordinan", "occurance_date": "1/22/2004", "latitude": 21.4180556, "longitude": -157.8036111, "year": 1960, "month": "1960-10-01T00:00:00"}, {"date_time": "1961-10-10T19:00:00", "city": "bristol", "state": "tn", "country": "us", "object_shape": "sphere", "duration_seconds": 300.0, "duration": "5 minutes", "comments": "My father is now 89 my brother 52 the girl with us now 51 myself 49 and the other fellow which worked with my father if he&#39s still livi", "occurance_date": "4/27/2007", "latitude": 36.595, "longitude": -82.1888889, "year": 1961, "month": "1961-10-01T00:00:00"}, {"date_time": "1965-10-10T21:00:00", "city": "penarth (uk/wales)", "state": null, "country": "gb", "object_shape": "circle", "duration_seconds": 180.0, "duration": "about 3 mins", "comments": "penarth uk  circle  3mins  stayed 30ft above me for 3 mins slowly moved of and then with the blink of the eye the speed was unreal", "occurance_date": "2/14/2006", "latitude": 51.434722, "longitude": -3.18, "year": 1965, "month": "1965-10-01T00:00:00"}, {"date_time": "1965-10-10T23:45:00", "city": "norwalk", "state": "ct", "country": "us", "object_shape": "disk", "duration_seconds": 1200.0, "duration": "20 minutes", "comments": "A bright orange color changing to reddish color disk/saucer was observed hovering above power transmission lines.", "occurance_date": "10/2/1999", "latitude": 41.1175, "longitude": -73.4083333, "year": 1965, "month": "1965-10-01T00:00:00"}, {"date_time": "1966-10-10T20:00:00", "city": "pell city", "state": "al", "country": "us", "object_shape": "disk", "duration_seconds": 180.0, "duration": "3  minutes", "comments": "Strobe Lighted disk shape object observed close&#44 at low speeds&#44 and low altitude in Oct 1966 in Pell City Alabama", "occurance_date": "3/19/2009", "latitude": 33.5861111, "longitude": -86.2861111, "year": 1966, "month": "1966-10-01T00:00:00"}, {"date_time": "1966-10-10T21:00:00", "city": "live oak", "state": "fl", "country": "us", "object_shape": "disk", "duration_seconds": 120.0, "duration": "several minutes", "comments": "Saucer zaps energy from powerline as my pregnant mother receives mental signals not to pass info", "occurance_date": "5/11/2005", "latitude": 30.2947222, "longitude": -82.9841667, "year": 1966, "month": "1966-10-01T00:00:00"}, {"date_time": "1968-10-10T13:00:00", "city": "hawthorne", "state": "ca", "country": "us", "object_shape": "circle", "duration_seconds": 300.0, "duration": "5 min.", "comments": "ROUND &#44 ORANGE &#44 WITH WHAT I WOULD SAY WAS POLISHED METAL OF SOME KIND AROUND THE EDGES .", "occurance_date": "10/31/2003", "latitude": 33.9163889, "longitude": -118.3516667, "year": 1968, "month": "1968-10-01T00:00:00"}, {"date_time": "1968-10-10T19:00:00", "city": "brevard", "state": "nc", "country": "us", "object_shape": "fireball", "duration_seconds": 180.0, "duration": "3 minutes", "comments": "silent red /orange mass of energy floated by three of us in western North Carolina in the 60s", "occurance_date": "6/12/2008", "latitude": 35.2333333, "longitude": -82.7344444, "year": 1968, "month": "1968-10-01T00:00:00"}, {"date_time": "1970-10-10T16:00:00", "city": "bellmore", "state": "ny", "country": "us", "object_shape": "disk", "duration_seconds": 1800.0, "duration": "30 min.", "comments": "silver disc seen by family and neighbors", "occurance_date": "5/11/2000", "latitude": 40.6686111, "longitude": -73.5275, "year": 1970, "month": "1970-10-01T00:00:00"}, {"date_time": "1970-10-10T19:00:00", "city": "manchester", "state": "ky", "country": "us", "object_shape": "unknown", "duration_seconds": 180.0, "duration": "3 minutes", "comments": "Slow moving&#44 silent craft accelerated at an unbelievable angle and speed.", "occurance_date": "2/14/2008", "latitude": 37.1536111, "longitude": -83.7619444, "year": 1970, "month": "1970-10-01T00:00:00"}, {"date_time": "1971-10-10T21:00:00", "city": "lexington", "state": "nc", "country": "us", "object_shape": "oval", "duration_seconds": 30.0, "duration": "30 seconds", "comments": "green oval shaped light over my local church&#44power lines down..", "occurance_date": "2/14/2010", "latitude": 35.8238889, "longitude": -80.2536111, "year": 1971, "month": "1971-10-01T00:00:00"}, {"date_time": "1972-10-10T19:00:00", "city": "harlan county", "state": "ky", "country": "us", "object_shape": "circle", "duration_seconds": 1200.0, "duration": "20minutes", "comments": "On october 10&#44 1972 myself&#44my 5yrs.daughter&#442 neices and 2 nephews were playing tag in the back yard .When we looked over on the ridge", "occurance_date": "9/15/2005", "latitude": 36.8430556, "longitude": -83.3219444, "year": 1972, "month": "1972-10-01T00:00:00"}, {"date_time": "1972-10-10T22:30:00", "city": "west bloomfield", "state": "mi", "country": "us", "object_shape": "disk", "duration_seconds": 120.0, "duration": "2 minutes", "comments": "The UFO was so close&#44 my battery in the car went to zero amps&#44 stalling the engine&#44 turning off my lights and radio.", "occurance_date": "8/14/2007", "latitude": 42.5377778, "longitude": -83.2330556, "year": 1972, "month": "1972-10-01T00:00:00"}, {"date_time": "1973-10-10T19:00:00", "city": "niantic", "state": "ct", "country": "us", "object_shape": "disk", "duration_seconds": 1800.0, "duration": "20-30 min", "comments": "Oh&#44 what a night &#33  Two (2) saucer-shaped&#44 glowing green objects and one (1) brilliantly glowing sphere gliding over the lake.", "occurance_date": "9/24/2003", "latitude": 41.3252778, "longitude": -72.1936111, "year": 1973, "month": "1973-10-01T00:00:00"}, {"date_time": "1973-10-10T23:00:00", "city": "bermuda nas", "state": null, "country": null, "object_shape": "light", "duration_seconds": 20.0, "duration": "20 sec.", "comments": "saw fast moving blip on the radar scope thin went outside and saw it again.", "occurance_date": "1/11/2002", "latitude": 32.364167, "longitude": -64.678611, "year": 1973, "month": "1973-10-01T00:00:00"}, {"date_time": "1974-10-10T19:30:00", "city": "hudson", "state": "ma", "country": "us", "object_shape": "other", "duration_seconds": 2700.0, "duration": "45 minutes", "comments": "Not sure of the eact month or year of this sighting but it was in the fall of 74 or 75. Was walking home around dusk and saw a bright l", "occurance_date": "8/10/1999", "latitude": 42.3916667, "longitude": -71.5666667, "year": 1974, "month": "1974-10-01T00:00:00"}, {"date_time": "1974-10-10T21:30:00", "city": "cardiff (uk/wales)", "state": null, "country": "gb", "object_shape": "disk", "duration_seconds": 1200.0, "duration": "20 minutes", "comments": "back in 1974 I was 19 at the time and  lived in a suburb of Cardiff Wales UK called Ely&#44 and in the distance there was a wood called Ca", "occurance_date": "2/1/2007", "latitude": 51.5, "longitude": -3.2, "year": 1974, "month": "1974-10-01T00:00:00"}, {"date_time": "1974-10-10T23:00:00", "city": "hudson", "state": "ks", "country": "us", "object_shape": "light", "duration_seconds": 1200.0, "duration": "one hour?", "comments": "The light chased us.", "occurance_date": "7/25/2004", "latitude": 38.1055556, "longitude": -98.6597222, "year": 1974, "month": "1974-10-01T00:00:00"}, {"date_time": "1975-10-10T17:00:00", "city": "north charleston", "state": "sc", "country": "us", "object_shape": "light", "duration_seconds": 360.0, "duration": "5-6 minutes", "comments": "Several Flashing UFO lights over Charleston Naval Base in S.C.", "occurance_date": "2/14/2008", "latitude": 32.8544444, "longitude": -79.975, "year": 1975, "month": "1975-10-01T00:00:00"}, {"date_time": "1976-10-10T20:30:00", "city": "washougal", "state": "wa", "country": "us", "object_shape": "oval", "duration_seconds": 60.0, "duration": "1 minute", "comments": "Three extremely large lights hanging above nearby trees.", "occurance_date": "2/7/2014", "latitude": 45.5827778, "longitude": -122.3522222, "year": 1976, "month": "1976-10-01T00:00:00"}, {"date_time": "1976-10-10T22:00:00", "city": "stoke mandeville (uk/england)", "state": null, "country": "gb", "object_shape": "cigar", "duration_seconds": 3.0, "duration": "3 seconds", "comments": "White object over Buckinghamshire UK.", "occurance_date": "12/12/2009", "latitude": 51.783333, "longitude": -0.783333, "year": 1976, "month": "1976-10-01T00:00:00"}, {"date_time": "1977-10-10T12:00:00", "city": "san antonio", "state": "tx", "country": "us", "object_shape": "other", "duration_seconds": 30.0, "duration": "30 seconds", "comments": "i was about six or seven and my family and me were sitting next to a window at home eating when a type of dark ball hit the screen wind", "occurance_date": "2/24/2005", "latitude": 29.4238889, "longitude": -98.4933333, "year": 1977, "month": "1977-10-01T00:00:00"}, {"date_time": "1977-10-10T22:00:00", "city": "louisville", "state": "ky", "country": "us", "object_shape": "light", "duration_seconds": 30.0, "duration": "approx: 30 seconds", "comments": "HBCCUFO CANADIAN REPORT:  Pilot Sighting Of Unusual Light.", "occurance_date": "3/17/2004", "latitude": 38.2541667, "longitude": -85.7594444, "year": 1977, "month": "1977-10-01T00:00:00"}, {"date_time": "1978-10-10T02:00:00", "city": "elmont", "state": "ny", "country": "us", "object_shape": "rectangle", "duration_seconds": 300.0, "duration": "5min", "comments": "A memory I will never forget that happened meny years ago.", "occurance_date": "2/1/2007", "latitude": 40.7008333, "longitude": -73.7133333, "year": 1978, "month": "1978-10-01T00:00:00"}, {"date_time": "1979-10-10T00:00:00", "city": "poughkeepsie", "state": "ny", "country": "us", "object_shape": "chevron", "duration_seconds": 900.0, "duration": "15 minutes", "comments": "1/4 moon-like&#44  its &#39chord&#39 or flat side parallel to horizon&#44  bright orange-red glow&#44  completely silent&#44 no features.", "occurance_date": "4/16/2005", "latitude": 41.7002778, "longitude": -73.9213889, "year": 1979, "month": "1979-10-01T00:00:00"}, {"date_time": "1979-10-10T22:00:00", "city": "saddle lake (canada)", "state": "ab", "country": null, "object_shape": "triangle", "duration_seconds": 270.0, "duration": "4.5 or more min.", "comments": "Lights far above&#44  that glance; then flee from the celestrialhavens&#44 only to appear again.", "occurance_date": "1/19/2005", "latitude": 53.970571, "longitude": -111.689885, "year": 1979, "month": "1979-10-01T00:00:00"}, {"date_time": "1979-10-10T22:00:00", "city": "san diego", "state": "ca", "country": "us", "object_shape": "oval", "duration_seconds": 180.0, "duration": "3 minutes", "comments": "My 2nd UFO sighting&#44 October 1979", "occurance_date": "8/5/2001", "latitude": 32.7152778, "longitude": -117.1563889, "year": 1979, "month": "1979-10-01T00:00:00"}, {"date_time": "1979-10-10T22:00:00", "city": "security", "state": "co", "country": "us", "object_shape": "unknown", "duration_seconds": 1800.0, "duration": "30mins.", "comments": "very low clouds all different colors&#44search lights were seen shining down out of the clouds on the houses and streets. this event was s", "occurance_date": "1/28/1999", "latitude": 38.7583333, "longitude": -104.7425, "year": 1979, "month": "1979-10-01T00:00:00"}, {"date_time": "1980-10-10T19:00:00", "city": "houston", "state": "tx", "country": "us", "object_shape": "sphere", "duration_seconds": 180.0, "duration": "3 min", "comments": "Sphere&#44 No lights&#44  moving through neighborhoods above tree tops&#44 over busy streets in Houston in 1980.", "occurance_date": "4/16/2005", "latitude": 29.7630556, "longitude": -95.3630556, "year": 1980, "month": "1980-10-01T00:00:00"}, {"date_time": "1980-10-10T22:00:00", "city": "dallas", "state": "tx", "country": "us", "object_shape": "unknown", "duration_seconds": 300.0, "duration": "5 minutes", "comments": "Strange shape shifting craft of pure light energy.", "occurance_date": "10/28/2002", "latitude": 32.7833333, "longitude": -96.8, "year": 1980, "month": "1980-10-01T00:00:00"}, {"date_time": "1980-10-10T23:30:00", "city": "manchester", "state": "nh", "country": "us", "object_shape": "light", "duration_seconds": 300.0, "duration": "3 to 5 min", "comments": "A red glowing sphere stopped and watched me.", "occurance_date": "11/21/2010", "latitude": 42.9955556, "longitude": -71.4552778, "year": 1980, "month": "1980-10-01T00:00:00"}, {"date_time": "1982-10-10T07:00:00", "city": "gisborne (new zealand)", "state": null, "country": null, "object_shape": "disk", "duration_seconds": 120.0, "duration": "2min", "comments": "gisborne nz 1982 wainui beach to sponge bay", "occurance_date": "1/11/2002", "latitude": -38.662334, "longitude": 178.017649, "year": 1982, "month": "1982-10-01T00:00:00"}, {"date_time": "1984-10-10T05:00:00", "city": "houston", "state": "tx", "country": "us", "object_shape": "circle", "duration_seconds": 60.0, "duration": "1 minute", "comments": "2 experience with unkown", "occurance_date": "4/18/2012", "latitude": 29.7630556, "longitude": -95.3630556, "year": 1984, "month": "1984-10-01T00:00:00"}, {"date_time": "1984-10-10T12:00:00", "city": "traverse city", "state": "mi", "country": "us", "object_shape": "other", "duration_seconds": 120.0, "duration": "couple minutes", "comments": "translucent football seen over city airport", "occurance_date": "10/7/2003", "latitude": 44.7630556, "longitude": -85.6205556, "year": 1984, "month": "1984-10-01T00:00:00"}, {"date_time": "1984-10-10T22:00:00", "city": "white plains", "state": "ny", "country": "us", "object_shape": "formation", "duration_seconds": 20.0, "duration": "15-20 seconds", "comments": "Saw a hugh object in sky with lights intermittently placed not making any noise traveling north in the night sky.It had no real identif", "occurance_date": "8/10/1999", "latitude": 41.0338889, "longitude": -73.7633333, "year": 1984, "month": "1984-10-01T00:00:00"}, {"date_time": "1985-10-10T20:25:00", "city": "leeds (uk/england)", "state": null, "country": "gb", "object_shape": "triangle", "duration_seconds": 600.0, "duration": "10min", "comments": "three light in the sky that led to a big black silent triangle shaped craft.", "occurance_date": "3/4/2003", "latitude": 53.8, "longitude": -1.583333, "year": 1985, "month": "1985-10-01T00:00:00"}, {"date_time": "1986-10-10T20:00:00", "city": "holmes/pawling", "state": "ny", "country": null, "object_shape": "chevron", "duration_seconds": 180.0, "duration": "3 minutes", "comments": "Football Field Sized Chevron with bright white lights on front&#44 moving slowly with absolutely no sound", "occurance_date": "10/8/2007", "latitude": 41.523427, "longitude": -73.646795, "year": 1986, "month": "1986-10-01T00:00:00"}, {"date_time": "1988-10-10T18:00:00", "city": "milwaukee", "state": "wi", "country": "us", "object_shape": "triangle", "duration_seconds": 600.0, "duration": "10 minutes", "comments": "A silent black triangular object with no lights moved over us as we walked our dog across a school playground.", "occurance_date": "8/7/2007", "latitude": 43.0388889, "longitude": -87.9063889, "year": 1988, "month": "1988-10-01T00:00:00"}, {"date_time": "1988-10-10T21:00:00", "city": "new gloucester", "state": "me", "country": "us", "object_shape": "unknown", "duration_seconds": 120.0, "duration": "few minutes", "comments": "I&#39m still afraid to look at the sky at night.", "occurance_date": "1/10/2009", "latitude": 43.9627778, "longitude": -70.2830556, "year": 1988, "month": "1988-10-01T00:00:00"}, {"date_time": "1988-10-10T22:00:00", "city": "boulder", "state": "co", "country": "us", "object_shape": "light", "duration_seconds": 60.0, "duration": "1 minute", "comments": "Three Stars Begin to Move Randomly&#44 Stop&#44 Change Direction&#44 Move Again&#44 And Then Vanish", "occurance_date": "7/16/2006", "latitude": 40.015, "longitude": -105.27, "year": 1988, "month": "1988-10-01T00:00:00"}, {"date_time": "1988-10-10T22:45:00", "city": "seattle (ballard area)", "state": "wa", "country": "us", "object_shape": "unknown", "duration_seconds": 2.0, "duration": "2 sec.", "comments": "Two adult witnesses are stunned by the sound of an object that streaks above the home they are in.", "occurance_date": "4/27/2004", "latitude": 47.6063889, "longitude": -122.3308333, "year": 1988, "month": "1988-10-01T00:00:00"}, {"date_time": "1989-10-10T00:00:00", "city": "calabasas", "state": "ca", "country": "us", "object_shape": "disk", "duration_seconds": 300.0, "duration": "approx 5 min", "comments": "Unidentified object on Mulholland Highway.", "occurance_date": "12/14/2004", "latitude": 34.1577778, "longitude": -118.6375, "year": 1989, "month": "1989-10-01T00:00:00"}, {"date_time": "1989-10-10T21:00:00", "city": "centralia", "state": "wa", "country": "us", "object_shape": "triangle", "duration_seconds": 60.0, "duration": "1 minute", "comments": "A huge triangularly shaped silent object that blotted out 25 degrees of the sky&#44 lighted by four glowing points.", "occurance_date": "4/27/2004", "latitude": 46.7163889, "longitude": -122.9530556, "year": 1989, "month": "1989-10-01T00:00:00"}, {"date_time": "1989-10-10T21:00:00", "city": "kranklin", "state": "ky", "country": null, "object_shape": "triangle", "duration_seconds": 180.0, "duration": "3min", "comments": "Triangle seen in franklin Ky - october 1989", "occurance_date": "5/11/2005", "latitude": 36.722263, "longitude": -86.577218, "year": 1989, "month": "1989-10-01T00:00:00"}, {"date_time": "1990-10-10T21:00:00", "city": "ashburn", "state": "ga", "country": "us", "object_shape": "triangle", "duration_seconds": 120.0, "duration": "2 minutes", "comments": "Translucent Craft that makes No Sound While Moving", "occurance_date": "10/8/2007", "latitude": 31.7058333, "longitude": -83.6533333, "year": 1990, "month": "1990-10-01T00:00:00"}, {"date_time": "1991-10-10T22:00:00", "city": "frisco", "state": "nc", "country": "us", "object_shape": "unknown", "duration_seconds": 1800.0, "duration": "30 minutes", "comments": "A friend and myself were standing on the shore of the Pamlico sound as we observed 4 objects moving in up and down motions for about 30", "occurance_date": "1/28/1999", "latitude": 35.235, "longitude": -75.6288889, "year": 1991, "month": "1991-10-01T00:00:00"}, {"date_time": "1991-10-10T22:00:00", "city": "harrisburg", "state": "pa", "country": "us", "object_shape": "triangle", "duration_seconds": 600.0, "duration": "10 minutes", "comments": "We observed 3 triangular shaped high speed objects&#33", "occurance_date": "5/9/2003", "latitude": 40.2736111, "longitude": -76.8847222, "year": 1991, "month": "1991-10-01T00:00:00"}, {"date_time": "1992-10-10T17:00:00", "city": "panama city", "state": "fl", "country": "us", "object_shape": "formation", "duration_seconds": 3600.0, "duration": "1 hour(?)", "comments": "During a road trip to Panama City a friend and I witnessed a pair of luminous light formations appear and dissappear over the Gulf.", "occurance_date": "1/28/1999", "latitude": 30.1586111, "longitude": -85.6602778, "year": 1992, "month": "1992-10-01T00:00:00"}, {"date_time": "1992-10-10T18:00:00", "city": "stafford", "state": "tx", "country": "us", "object_shape": "unknown", "duration_seconds": 10.0, "duration": "10 seconds", "comments": "A man emerges from a beam of light that shines on a grassy field at night and he runs towards the Texas Instruments parking lot.", "occurance_date": "4/18/2012", "latitude": 29.6158333, "longitude": -95.5575, "year": 1992, "month": "1992-10-01T00:00:00"}, {"date_time": "1992-10-10T20:15:00", "city": "seymour", "state": "tn", "country": "us", "object_shape": "cigar", "duration_seconds": 60.0, "duration": "1min. 39s", "comments": "Stationary Elongated UFO 200ft above vacant field with city lights on bottom", "occurance_date": "10/31/2008", "latitude": 35.8905556, "longitude": -83.7247222, "year": 1992, "month": "1992-10-01T00:00:00"}, {"date_time": "1992-10-10T22:00:00", "city": "weatherford", "state": "tx", "country": "us", "object_shape": "unknown", "duration_seconds": 30.0, "duration": "30 seconds", "comments": "Black or dark grey.  Too big&#44 too low&#44 too slow&#44 too quiet&#44 for a normal aircraft.", "occurance_date": "9/2/2005", "latitude": 32.7591667, "longitude": -97.7969444, "year": 1992, "month": "1992-10-01T00:00:00"}, {"date_time": "1993-10-10T03:00:00", "city": "zlatoust (russia)", "state": null, "country": null, "object_shape": "sphere", "duration_seconds": 1200.0, "duration": "20 minutes", "comments": "I woke up at night and looked out the window near my bed. There was a huge sphere of shining light in front of our nine floor apartment", "occurance_date": "12/14/2004", "latitude": 55.183333, "longitude": 59.65, "year": 1993, "month": "1993-10-01T00:00:00"}, {"date_time": "1993-10-10T22:00:00", "city": "peoria", "state": "il", "country": "us", "object_shape": "light", "duration_seconds": 8.0, "duration": "8 seconds", "comments": "Light over Peoria&#44 IL that moves slowly&#44 stops in mid-air&#44 hovers&#44 changes colors&#44 shoots in opposite direction and disappears.", "occurance_date": "10/11/2005", "latitude": 40.6936111, "longitude": -89.5888889, "year": 1993, "month": "1993-10-01T00:00:00"}, {"date_time": "1993-10-10T23:00:00", "city": "carthage", "state": "tn", "country": "us", "object_shape": "other", "duration_seconds": 60.0, "duration": "less than 1 min", "comments": "1 object with green and red lights", "occurance_date": "3/21/2003", "latitude": 36.2522222, "longitude": -85.9516667, "year": 1993, "month": "1993-10-01T00:00:00"}, {"date_time": "1994-10-10T15:00:00", "city": "mercedies", "state": "tx", "country": null, "object_shape": "cigar", "duration_seconds": 3600.0, "duration": "1 hour", "comments": "ufo chased by fighter jet over Rio Grande Valley. Seen on news", "occurance_date": "12/12/2011", "latitude": 26.149798, "longitude": -97.913611, "year": 1994, "month": "1994-10-01T00:00:00"}, {"date_time": "1994-10-10T18:30:00", "city": "burnt hills", "state": "ny", "country": "us", "object_shape": "rectangle", "duration_seconds": 120.0, "duration": "2 minutes", "comments": "Giant rectangular craft (resembling an upside-down aircraft carrier) over highway near Saratoga&#44 NY.", "occurance_date": "10/23/2013", "latitude": 42.9097222, "longitude": -73.8955556, "year": 1994, "month": "1994-10-01T00:00:00"}, {"date_time": "1994-10-10T22:00:00", "city": "pinebergen", "state": "ar", "country": "us", "object_shape": "light", "duration_seconds": 5.0, "duration": "5 seconds", "comments": "Round&#44 bright&#44 low flying object silently speeds West of Arkansas town at 11:30pm&#44 10/10/94.", "occurance_date": "2/18/2001", "latitude": 34.1027778, "longitude": -91.9922222, "year": 1994, "month": "1994-10-01T00:00:00"}, {"date_time": "1994-10-10T23:00:00", "city": "toronto (greater toronto area) (canada)", "state": "on", "country": "ca", "object_shape": "sphere", "duration_seconds": 3600.0, "duration": "~1 hour", "comments": "Large rusty sphere", "occurance_date": "7/3/2013", "latitude": 43.666667, "longitude": -79.416667, "year": 1994, "month": "1994-10-01T00:00:00"}, {"date_time": "1995-10-10T19:45:00", "city": "milwaukee", "state": "wi", "country": "us", "object_shape": null, "duration_seconds": 120.0, "duration": "2 min.", "comments": "Man  on Hwy 43 SW of Milwaukee sees large&#44 bright blue light streak by his car&#44 descend&#44 turn&#44 cross road ahead&#44 strobe. Bizarre&#33", "occurance_date": "11/2/1999", "latitude": 43.0388889, "longitude": -87.9063889, "year": 1995, "month": "1995-10-01T00:00:00"}, {"date_time": "1995-10-10T22:40:00", "city": "oakland", "state": "ca", "country": "us", "object_shape": null, "duration_seconds": 60.0, "duration": "1 minute", "comments": "Woman repts.  bright light in NW sky&#44 suddenly approaches her&#44 flies slowly overhead.  Swept wings&#44 2 blurry lights either side.", "occurance_date": "11/2/1999", "latitude": 37.8044444, "longitude": -122.2697222, "year": 1995, "month": "1995-10-01T00:00:00"}, {"date_time": "1996-10-10T03:20:00", "city": "higginsville", "state": "mo", "country": "us", "object_shape": "triangle", "duration_seconds": 3.0, "duration": "3sec", "comments": "illuminated triangular craft&#44 flying at high speed from South to North", "occurance_date": "2/16/2000", "latitude": 39.0725, "longitude": -93.7169444, "year": 1996, "month": "1996-10-01T00:00:00"}, {"date_time": "1996-10-10T20:00:00", "city": "lake macquarie (nsw&#44 australia)", "state": null, "country": null, "object_shape": "light", "duration_seconds": 300.0, "duration": "5 min", "comments": "RED LIGHT WITH OTHER RED FLASHING LIGHT&#44 ONE OBJECT", "occurance_date": "5/24/1999", "latitude": -33.093373, "longitude": 151.588982, "year": 1996, "month": "1996-10-01T00:00:00"}, {"date_time": "1996-10-10T22:00:00", "city": "charleston", "state": "sc", "country": "us", "object_shape": "light", "duration_seconds": 300.0, "duration": "5 min", "comments": "Flashing object above Charleston&#44 SC", "occurance_date": "11/26/2003", "latitude": 32.7763889, "longitude": -79.9311111, "year": 1996, "month": "1996-10-01T00:00:00"}, {"date_time": "1996-10-10T22:30:00", "city": "monroe county", "state": "oh", "country": "us", "object_shape": "cylinder", "duration_seconds": 60.0, "duration": "1 minute", "comments": "Looked like it went through the hillside", "occurance_date": "7/8/2004", "latitude": 39.4402778, "longitude": -84.3622222, "year": 1996, "month": "1996-10-01T00:00:00"}, {"date_time": "1997-10-10T16:00:00", "city": "connersville", "state": "in", "country": "us", "object_shape": "delta", "duration_seconds": 14400.0, "duration": "4 hours", "comments": "3 differants types &#44 cluster &#44delta &#44 and one in a 3 pointed star design . followed it for six miles .", "occurance_date": "1/28/1999", "latitude": 39.6411111, "longitude": -85.1411111, "year": 1997, "month": "1997-10-01T00:00:00"}, {"date_time": "1997-10-10T17:00:00", "city": "mesa", "state": "az", "country": "us", "object_shape": "sphere", "duration_seconds": 30.0, "duration": "30 seconds", "comments": "A small dark purple quad-thruster craft hovering 200-300 feet in the sky. 500 Lights On Object0: Yes", "occurance_date": "2/14/2008", "latitude": 33.4222222, "longitude": -111.8219444, "year": 1997, "month": "1997-10-01T00:00:00"}, {"date_time": "1997-10-10T20:00:00", "city": "bonaire", "state": "ga", "country": "us", "object_shape": "triangle", "duration_seconds": 300.0, "duration": "<5 minutes", "comments": "Triangular Object Sighted at Very Close Range", "occurance_date": "2/1/2007", "latitude": 32.5436111, "longitude": -83.5961111, "year": 1997, "month": "1997-10-01T00:00:00"}, {"date_time": "1997-10-10T21:00:00", "city": "austin", "state": "mn", "country": "us", "object_shape": "other", "duration_seconds": 3600.0, "duration": "1-hour", "comments": "i was traveling northbound on state highway 105 approximately 8 miles south of Austin MN when an object came down directly above my car", "occurance_date": "1/28/1999", "latitude": 43.6666667, "longitude": -92.9744444, "year": 1997, "month": "1997-10-01T00:00:00"}, {"date_time": "1998-10-10T02:30:00", "city": "hollywood", "state": "ca", "country": "us", "object_shape": "changing", "duration_seconds": 300.0, "duration": "5 minutes", "comments": "I was standing outside on Sunset Blvd. at Vine and looked straight up which I normally do not do. I saw three bright white lights in a", "occurance_date": "11/1/1998", "latitude": 34.0983333, "longitude": -118.3258333, "year": 1998, "month": "1998-10-01T00:00:00"}, {"date_time": "1998-10-10T03:30:00", "city": "phoenix (north part)", "state": "az", "country": "us", "object_shape": "fireball", "duration_seconds": 15.0, "duration": "10 to 15 sec", "comments": "bright green moving north to north east. it was bright green and kinda clear. quite fast too.", "occurance_date": "2/16/1999", "latitude": 33.4483333, "longitude": -112.0733333, "year": 1998, "month": "1998-10-01T00:00:00"}, {"date_time": "1998-10-10T13:15:00", "city": "elgin", "state": "il", "country": "us", "object_shape": "cylinder", "duration_seconds": 1800.0, "duration": "30 +/- min", "comments": "While looking up at sky I noticed a bright light hovering above the sky. then I noticed a jet airliner traveling in the same area and I", "occurance_date": "11/1/1998", "latitude": 42.0372222, "longitude": -88.2811111, "year": 1998, "month": "1998-10-01T00:00:00"}, {"date_time": "1998-10-10T17:30:00", "city": "las vegas", "state": "nv", "country": "us", "object_shape": "cigar", "duration_seconds": 600.0, "duration": "10 minutes", "comments": "White&#44 vertical cigar shape floating around in the eastern sky.", "occurance_date": "11/1/1998", "latitude": 36.175, "longitude": -115.1363889, "year": 1998, "month": "1998-10-01T00:00:00"}, {"date_time": "1998-10-10T17:30:00", "city": "las vegas", "state": "nv", "country": "us", "object_shape": "circle", "duration_seconds": 2700.0, "duration": "45min.", "comments": "Ufo sighting in las vegas near Area51", "occurance_date": "8/30/1999", "latitude": 36.175, "longitude": -115.1363889, "year": 1998, "month": "1998-10-01T00:00:00"}, {"date_time": "1998-10-10T20:30:00", "city": "nyc/westchester area", "state": "ny", "country": null, "object_shape": "triangle", "duration_seconds": 60.0, "duration": "< 1 min", "comments": "Lights over NYC", "occurance_date": "10/30/2006", "latitude": 40.935998, "longitude": -73.901708, "year": 1998, "month": "1998-10-01T00:00:00"}, {"date_time": "1998-10-10T20:30:00", "city": "spokane (about 30 miles sw of&#44i-90&#44 maybe mm 254)", "state": "wa", "country": "us", "object_shape": "triangle", "duration_seconds": 600.0, "duration": "10 minutes", "comments": "Dark boomerange object seen for ten minutes hovering over the freeway with a bright light out the front that lit up the fields. No jet", "occurance_date": "8/5/2001", "latitude": 47.6588889, "longitude": -117.425, "year": 1998, "month": "1998-10-01T00:00:00"}, {"date_time": "1998-10-10T20:50:00", "city": "mooresville", "state": "nc", "country": "us", "object_shape": "light", "duration_seconds": 2.0, "duration": "2 seconds", "comments": "Star gazing in back yard with telescope and binos. Saw shooting star and an oblong shape of light.", "occurance_date": "11/1/1998", "latitude": 35.5847222, "longitude": -80.8102778, "year": 1998, "month": "1998-10-01T00:00:00"}, {"date_time": "1998-10-10T22:30:00", "city": "st. john&#39s (canada)", "state": "nf", "country": "ca", "object_shape": "egg", "duration_seconds": 7200.0, "duration": "2 hours", "comments": "Started off as 3 points of intense yellow light in triangle formation - then grew larger - it becage a single egg shape - VERY bright.", "occurance_date": "12/2/2000", "latitude": 47.55, "longitude": -52.666667, "year": 1998, "month": "1998-10-01T00:00:00"}, {"date_time": "1998-10-10T23:50:00", "city": "delano", "state": "tn", "country": "us", "object_shape": "fireball", "duration_seconds": 15.0, "duration": "15 seconds", "comments": "I came home from work one night and I seen a bright fire like ball go across the top ofthe mountain and it was going fast then it stopp", "occurance_date": "3/21/2003", "latitude": 35.265, "longitude": -84.5533333, "year": 1998, "month": "1998-10-01T00:00:00"}, {"date_time": "1999-10-10T00:01:00", "city": "martinez", "state": "ca", "country": "us", "object_shape": "changing", "duration_seconds": 3600.0, "duration": "1 hour", "comments": "Bright objects&#44 red and green flashing lights (and a diffuse white light off to one side of the larger of the two objects)&#44 about 30 de", "occurance_date": "10/19/1999", "latitude": 38.0194444, "longitude": -122.1330556, "year": 1999, "month": "1999-10-01T00:00:00"}, {"date_time": "1999-10-10T04:00:00", "city": "kansas city", "state": "ks", "country": "us", "object_shape": "unknown", "duration_seconds": 600.0, "duration": "5-10 min.", "comments": "Orange object over city.", "occurance_date": "10/19/1999", "latitude": 39.1141667, "longitude": -94.6272222, "year": 1999, "month": "1999-10-01T00:00:00"}, {"date_time": "1999-10-10T06:00:00", "city": "dallas", "state": "tx", "country": "us", "object_shape": "other", "duration_seconds": 10.0, "duration": "10 seconds", "comments": "group of   twinkling lights at high altitude", "occurance_date": "11/20/2001", "latitude": 32.7833333, "longitude": -96.8, "year": 1999, "month": "1999-10-01T00:00:00"}, {"date_time": "1999-10-10T11:00:00", "city": "san diego", "state": "ca", "country": "us", "object_shape": "fireball", "duration_seconds": 3600.0, "duration": "1 hour", "comments": "At 10:45 in the morning&#44 my father and I noticed a small stationary object in the sky.", "occurance_date": "10/19/1999", "latitude": 32.7152778, "longitude": -117.1563889, "year": 1999, "month": "1999-10-01T00:00:00"}, {"date_time": "1999-10-10T12:40:00", "city": "kennewick", "state": "wa", "country": "us", "object_shape": "sphere", "duration_seconds": 45.0, "duration": "45 secs", "comments": "Standing outside saying goodby to family members and pointing to Chem-Trails", "occurance_date": "10/19/1999", "latitude": 46.2113889, "longitude": -119.1361111, "year": 1999, "month": "1999-10-01T00:00:00"}, {"date_time": "1999-10-10T20:35:00", "city": "hayward", "state": "ca", "country": "us", "object_shape": "circle", "duration_seconds": 90.0, "duration": "60-90 sec", "comments": "Many different colored glowing  objects", "occurance_date": "11/20/2001", "latitude": 37.6688889, "longitude": -122.0797222, "year": 1999, "month": "1999-10-01T00:00:00"}, {"date_time": "1999-10-10T21:00:00", "city": "rachel", "state": "nv", "country": "us", "object_shape": "light", "duration_seconds": 10800.0, "duration": "3 hours", "comments": "Bright lights with incredible agility seen from mailbox at Area 51 on UFO highway in Nevada for several hourse.", "occurance_date": "5/24/2005", "latitude": 37.6447222, "longitude": -115.7427778, "year": 1999, "month": "1999-10-01T00:00:00"}, {"date_time": "1999-10-10T21:30:00", "city": "humphrey", "state": "ne", "country": "us", "object_shape": "sphere", "duration_seconds": 300.0, "duration": "5 min", "comments": "Object moving erratically in sky stopped by spot light", "occurance_date": "2/14/2006", "latitude": 41.6916667, "longitude": -97.4841667, "year": 1999, "month": "1999-10-01T00:00:00"}, {"date_time": "1999-10-10T22:30:00", "city": "casey key (north end of)", "state": "fl", "country": null, "object_shape": "triangle", "duration_seconds": 120.0, "duration": "several minutes", "comments": "A large trianglual shaped craft flew from horizon to horizon as observed from the stern deck of a motor vessel", "occurance_date": "9/19/2002", "latitude": 27.150053, "longitude": -82.480653, "year": 1999, "month": "1999-10-01T00:00:00"}, {"date_time": "1999-10-10T22:30:00", "city": "elgin", "state": "or", "country": "us", "object_shape": "chevron", "duration_seconds": 240.0, "duration": "4 minutes", "comments": "Object silently traveled north -northwest. It was V shaped with five orange lights on the perimeter and one white ligh in the center of", "occurance_date": "10/19/1999", "latitude": 45.565, "longitude": -117.9163889, "year": 1999, "month": "1999-10-01T00:00:00"}, {"date_time": "1999-10-10T23:45:00", "city": "lewiston", "state": "mi", "country": "us", "object_shape": "oval", "duration_seconds": 2700.0, "duration": "45 minutes", "comments": "Oval shaped with lights all around it in a haze with several smaller lights flying all around it.", "occurance_date": "10/19/1999", "latitude": 44.8838889, "longitude": -84.3055556, "year": 1999, "month": "1999-10-01T00:00:00"}, {"date_time": "2000-10-10T03:00:00", "city": "perryville", "state": "mo", "country": "us", "object_shape": "oval", "duration_seconds": 180.0, "duration": "3 minutes", "comments": "The craft was big&#44 orange&#44 and oval shaped.", "occurance_date": "12/2/2000", "latitude": 37.7241667, "longitude": -89.8611111, "year": 2000, "month": "2000-10-01T00:00:00"}, {"date_time": "2000-10-10T06:15:00", "city": "boynton beach", "state": "fl", "country": "us", "object_shape": "other", "duration_seconds": 10.0, "duration": "10 seconds", "comments": "Unusual light formation moving extremely fast across the sky.", "occurance_date": "12/2/2000", "latitude": 26.525, "longitude": -80.0666667, "year": 2000, "month": "2000-10-01T00:00:00"}, {"date_time": "2000-10-10T07:30:00", "city": "victoria (canada)", "state": "bc", "country": "ca", "object_shape": "cylinder", "duration_seconds": 30.0, "duration": "30seconds", "comments": "Smooth Shiny Cylinder", "occurance_date": "12/2/2000", "latitude": 46.216667, "longitude": -63.483333, "year": 2000, "month": "2000-10-01T00:00:00"}, {"date_time": "2000-10-10T16:00:00", "city": "jueanu", "state": "wi", "country": null, "object_shape": "triangle", "duration_seconds": 45.0, "duration": "45 seconds", "comments": "5 bight light V shaped", "occurance_date": "12/2/2000", "latitude": 43.40555, "longitude": -88.705104, "year": 2000, "month": "2000-10-01T00:00:00"}, {"date_time": "2000-10-10T20:20:00", "city": "valley park area of st. louis", "state": "mo", "country": null, "object_shape": "oval", "duration_seconds": 15.0, "duration": "15 seconds", "comments": "Driving on Hyw.141 at Hyw. 44 and going East&#44 I witnessed to my right a glowing orb of light streak horizontally from East to West at a", "occurance_date": "12/2/2000", "latitude": 38.627003, "longitude": -90.199404, "year": 2000, "month": "2000-10-01T00:00:00"}, {"date_time": "2000-10-10T20:30:00", "city": "brinktown", "state": "mo", "country": "us", "object_shape": "light", "duration_seconds": 1800.0, "duration": "30 min.", "comments": "3 bright golden lights moving independently above the tree line flaring and fading intermittently for approx. 15 min.", "occurance_date": "12/2/2000", "latitude": 38.1266667, "longitude": -92.0844444, "year": 2000, "month": "2000-10-01T00:00:00"}, {"date_time": "2000-10-10T21:30:00", "city": "florence", "state": "ky", "country": "us", "object_shape": "light", "duration_seconds": 5.0, "duration": "4-5 seconds", "comments": "Two objects traveling side by side pass over&#44 as one begins to zig&#44 zag it&#39s path.", "occurance_date": "12/2/2000", "latitude": 38.9988889, "longitude": -84.6266667, "year": 2000, "month": "2000-10-01T00:00:00"}, {"date_time": "2000-10-10T21:30:00", "city": "seattle (west)", "state": "wa", "country": "us", "object_shape": "unknown", "duration_seconds": 10.0, "duration": "10 sec", "comments": "Dark object in the shape of a (4) after dusk in West Seattle", "occurance_date": "2/11/2003", "latitude": 47.6063889, "longitude": -122.3308333, "year": 2000, "month": "2000-10-01T00:00:00"}, {"date_time": "2000-10-10T22:00:00", "city": "port orchard", "state": "wa", "country": "us", "object_shape": "diamond", "duration_seconds": 60.0, "duration": "1min", "comments": "One night my window started to flash", "occurance_date": "5/12/2009", "latitude": 47.5405556, "longitude": -122.635, "year": 2000, "month": "2000-10-01T00:00:00"}, {"date_time": "2001-10-10T03:00:00", "city": "rockwell city", "state": "ia", "country": "us", "object_shape": "triangle", "duration_seconds": 240.0, "duration": "4 min.s", "comments": "Large&#44silent&#44slow&#44low to the ground dull-black Triangle UFO with round red lights at it&#39s corners that were off .I drew it.", "occurance_date": "7/1/2002", "latitude": 42.3952778, "longitude": -94.6336111, "year": 2001, "month": "2001-10-01T00:00:00"}, {"date_time": "2001-10-10T04:33:00", "city": "sydney (nsw&#44 australia)", "state": null, "country": "au", "object_shape": "formation", "duration_seconds": 180.0, "duration": "3 minutes", "comments": "formation and impact", "occurance_date": "11/20/2001", "latitude": -33.861481, "longitude": 151.205475, "year": 2001, "month": "2001-10-01T00:00:00"}, {"date_time": "2001-10-10T20:10:00", "city": "vancouver (canada)", "state": "bc", "country": "ca", "object_shape": "other", "duration_seconds": 300.0, "duration": "+5 minutes", "comments": "I observed an green object significantly above a house with the address ((deleted)) Dunbar Street.", "occurance_date": "5/12/2011", "latitude": 49.25, "longitude": -123.133333, "year": 2001, "month": "2001-10-01T00:00:00"}, {"date_time": "2001-10-10T20:35:00", "city": "hayward", "state": "ca", "country": "us", "object_shape": "circle", "duration_seconds": 120.0, "duration": "2/min.", "comments": "FALLING STAR  STOPS  &#39SHOTS OUT  DOZENS OF RED POINTS OF LIGHT", "occurance_date": "11/20/2001", "latitude": 37.6688889, "longitude": -122.0797222, "year": 2001, "month": "2001-10-01T00:00:00"}, {"date_time": "2001-10-10T21:15:00", "city": "ottumwa", "state": "ia", "country": "us", "object_shape": "rectangle", "duration_seconds": 300.0, "duration": "3-5 minutes", "comments": "We saw a square object at night&#44  which had 2 blue &amp; 2 red lights at corners&#44 hovering in sky above us.", "occurance_date": "11/20/2001", "latitude": 41.0041667, "longitude": -92.3736111, "year": 2001, "month": "2001-10-01T00:00:00"}, {"date_time": "2001-10-10T21:30:00", "city": "fresno", "state": "ca", "country": "us", "object_shape": "changing", "duration_seconds": 900.0, "duration": "15 min. apprx", "comments": "Objects were sighted driving north on Highway 5 in California&#39s central valley after night fall&#44 not far past &quot;Kettleman/Fresno&quot; exit s", "occurance_date": "11/20/2001", "latitude": 36.7477778, "longitude": -119.7713889, "year": 2001, "month": "2001-10-01T00:00:00"}, {"date_time": "2001-10-10T22:00:00", "city": "phoenix", "state": "az", "country": "us", "object_shape": "triangle", "duration_seconds": 60.0, "duration": "less then a minute", "comments": "Triangle shaped craft spotted flying west to east over mid town Phoenix on 10/10/01 at 22:00 hours 4 light dim making no sounellow", "occurance_date": "11/20/2001", "latitude": 33.4483333, "longitude": -112.0733333, "year": 2001, "month": "2001-10-01T00:00:00"}, {"date_time": "2001-10-10T23:00:00", "city": "virginia beach", "state": "va", "country": "us", "object_shape": "triangle", "duration_seconds": 30.0, "duration": "30 seconds", "comments": "shaped like a stealth bomber (boomerang like&#44 but more triangluar) flat-black in color&#44 made a deep humming sound either really low to", "occurance_date": "7/26/2002", "latitude": 36.8527778, "longitude": -75.9783333, "year": 2001, "month": "2001-10-01T00:00:00"}, {"date_time": "2002-10-10T00:01:00", "city": "hayward", "state": "wi", "country": "us", "object_shape": "flash", "duration_seconds": 43.0, "duration": "00:43", "comments": "we saw pure a light that occasionaly split into 3 to 4 different lights.", "occurance_date": "10/15/2002", "latitude": 46.0130556, "longitude": -91.4844444, "year": 2002, "month": "2002-10-01T00:00:00"}, {"date_time": "2002-10-10T02:00:00", "city": "philomath", "state": "or", "country": "us", "object_shape": "unknown", "duration_seconds": 5.0, "duration": "about5seconds", "comments": "i watched on the portland news that the space shuttle would be visiable and went to philomath oregon to what was known to be the apple", "occurance_date": "10/15/2002", "latitude": 44.5402778, "longitude": -123.3663889, "year": 2002, "month": "2002-10-01T00:00:00"}, {"date_time": "2002-10-10T04:00:00", "city": "adelaide (pt. wakefield) (south australia)", "state": null, "country": "au", "object_shape": "circle", "duration_seconds": 600.0, "duration": "10 mins", "comments": "one light became 3", "occurance_date": "10/28/2002", "latitude": -34.928661, "longitude": 138.598633, "year": 2002, "month": "2002-10-01T00:00:00"}, {"date_time": "2002-10-10T06:00:00", "city": "seattle", "state": "wa", "country": "us", "object_shape": "sphere", "duration_seconds": 90.0, "duration": "90 seconds", "comments": "Light falls from sky", "occurance_date": "10/15/2002", "latitude": 47.6063889, "longitude": -122.3308333, "year": 2002, "month": "2002-10-01T00:00:00"}, {"date_time": "2002-10-10T19:45:00", "city": "victoria (canada)", "state": "bc", "country": "ca", "object_shape": "unknown", "duration_seconds": 120.0, "duration": "2 minutes approx", "comments": "bright white light with black outline around it moving soundlessly and slowly from north banking east and disappearing upward.", "occurance_date": "10/15/2002", "latitude": 46.216667, "longitude": -63.483333, "year": 2002, "month": "2002-10-01T00:00:00"}, {"date_time": "2002-10-10T20:30:00", "city": "cincinnati", "state": "oh", "country": "us", "object_shape": "other", "duration_seconds": 1800.0, "duration": "30 minutes", "comments": "Large octagon blue lights on rim red center light hovers over downtown Cincinnati thursday October 10.", "occurance_date": "10/15/2002", "latitude": 39.1619444, "longitude": -84.4569444, "year": 2002, "month": "2002-10-01T00:00:00"}, {"date_time": "2002-10-10T21:00:00", "city": "portland", "state": "or", "country": "us", "object_shape": "circle", "duration_seconds": 120.0, "duration": "2min", "comments": "The LIGHT is the TRUTH&#33", "occurance_date": "12/16/2005", "latitude": 45.5236111, "longitude": -122.675, "year": 2002, "month": "2002-10-01T00:00:00"}, {"date_time": "2003-10-10T09:00:00", "city": "new buffulo", "state": "mi", "country": null, "object_shape": "light", "duration_seconds": 120.0, "duration": "2 minute", "comments": "Craft that suddenly vanishes and another one that shows up and does strange things at high speeds", "occurance_date": "5/24/2005", "latitude": 41.79393, "longitude": -86.743915, "year": 2003, "month": "2003-10-01T00:00:00"}, {"date_time": "2003-10-10T12:00:00", "city": "alhambra", "state": "ca", "country": "us", "object_shape": "oval", "duration_seconds": 300.0, "duration": "5 min", "comments": "3 Black ovals in the sky and a floating movie camera", "occurance_date": "1/17/2004", "latitude": 34.0952778, "longitude": -118.1261111, "year": 2003, "month": "2003-10-01T00:00:00"}, {"date_time": "2003-10-10T18:00:00", "city": "indianapolis", "state": "in", "country": "us", "object_shape": "sphere", "duration_seconds": 1800.0, "duration": "30 minutes", "comments": "Sphere shape object with flashing bright white lights", "occurance_date": "10/15/2003", "latitude": 39.7683333, "longitude": -86.1580556, "year": 2003, "month": "2003-10-01T00:00:00"}, {"date_time": "2003-10-10T19:15:00", "city": "centreville", "state": "va", "country": "us", "object_shape": "other", "duration_seconds": 600.0, "duration": "10 minutes", "comments": "Aliens check out local high school football game.", "occurance_date": "10/15/2003", "latitude": 38.8402778, "longitude": -77.4291667, "year": 2003, "month": "2003-10-01T00:00:00"}, {"date_time": "2003-10-10T20:05:00", "city": "grand view", "state": "id", "country": "us", "object_shape": "light", "duration_seconds": 15.0, "duration": "12-15 seconds", "comments": "Bright light above Mt. Home AFB", "occurance_date": "10/15/2003", "latitude": 42.9897222, "longitude": -116.0925, "year": 2003, "month": "2003-10-01T00:00:00"}, {"date_time": "2003-10-10T20:25:00", "city": "temperance", "state": "mi", "country": "us", "object_shape": "oval", "duration_seconds": 18000.0, "duration": "over 5 hours", "comments": "pulsating green white and red object in the northwest sky at 45degrees", "occurance_date": "10/31/2003", "latitude": 41.7791667, "longitude": -83.5688889, "year": 2003, "month": "2003-10-01T00:00:00"}, {"date_time": "2003-10-10T21:10:00", "city": "crescent beach", "state": "sc", "country": "us", "object_shape": "formation", "duration_seconds": 37800.0, "duration": "1 1/2 hr.", "comments": "For two consecutive nights&#44 we watched a pattern of lights before we were stunned by a discovery on the beach.", "occurance_date": "1/17/2004", "latitude": 33.8075, "longitude": -78.7011111, "year": 2003, "month": "2003-10-01T00:00:00"}, {"date_time": "2003-10-10T22:00:00", "city": "albuquerque", "state": "nm", "country": "us", "object_shape": "light", "duration_seconds": 180.0, "duration": "3 minutes", "comments": "Three bright lights that were huddled together than began to seperate and disappeared.", "occurance_date": "2/1/2007", "latitude": 35.0844444, "longitude": -106.6505556, "year": 2003, "month": "2003-10-01T00:00:00"}, {"date_time": "2003-10-10T23:00:00", "city": "bickerton (near wetherby) (uk/england)", "state": null, "country": null, "object_shape": "unknown", "duration_seconds": 2700.0, "duration": "45minutes", "comments": "two bright&#44 but fuzzy lights going in a hovering circle about 200 yards of the ground&#44 with a grey cloud above them", "occurance_date": "10/15/2003", "latitude": 53.070884, "longitude": -2.736506, "year": 2003, "month": "2003-10-01T00:00:00"}, {"date_time": "2003-10-10T23:25:00", "city": "gleason", "state": "wi", "country": "us", "object_shape": "sphere", "duration_seconds": 1800.0, "duration": "30min", "comments": "UFO Contact&#44 Amazing close sighting", "occurance_date": "9/2/2005", "latitude": 45.3088889, "longitude": -89.4963889, "year": 2003, "month": "2003-10-01T00:00:00"}, {"date_time": "2004-10-10T02:50:00", "city": "mahwah", "state": "nj", "country": "us", "object_shape": "triangle", "duration_seconds": 180.0, "duration": "2 - 3 minutes", "comments": "Triangle shaped flying&#44 hovering U.F.O. witnessed over Sheraton Hotel in Mahwah&#44 NJ. on 10/10/04.", "occurance_date": "12/12/2011", "latitude": 41.0886111, "longitude": -74.1441667, "year": 2004, "month": "2004-10-01T00:00:00"}, {"date_time": "2004-10-10T03:30:00", "city": "worthington st. forest", "state": "nj", "country": null, "object_shape": "other", "duration_seconds": 2700.0, "duration": "45 min", "comments": "witnessed a large object and an intense red light that illumiated the object.", "occurance_date": "10/27/2004", "latitude": 40.058324, "longitude": -74.405661, "year": 2004, "month": "2004-10-01T00:00:00"}, {"date_time": "2004-10-10T03:50:00", "city": "portage la prairie (canada)", "state": "mb", "country": "ca", "object_shape": "changing", "duration_seconds": 1200.0, "duration": "20minutes", "comments": "Series of Green Blue Red White lights spherical or triangular formation SE of Portage la Prairie&#44 Manitoba Canada", "occurance_date": "10/27/2004", "latitude": 49.966667, "longitude": -98.3, "year": 2004, "month": "2004-10-01T00:00:00"}, {"date_time": "2004-10-10T04:18:00", "city": "terre haute", "state": "in", "country": "us", "object_shape": "sphere", "duration_seconds": 5.0, "duration": "5 seconds", "comments": "silently&#44 it came over my head from behind; as I was laying on my back. About the size of a thumbnail at arms length&#44 was a lite white", "occurance_date": "10/27/2004", "latitude": 39.4666667, "longitude": -87.4138889, "year": 2004, "month": "2004-10-01T00:00:00"}, {"date_time": "2004-10-10T08:30:00", "city": "indianapolis", "state": "in", "country": "us", "object_shape": "oval", "duration_seconds": 15.0, "duration": "15 seconds", "comments": "((NUFORC Note:  Possible sighting of a contrail??  PD))", "occurance_date": "10/27/2004", "latitude": 39.7683333, "longitude": -86.1580556, "year": 2004, "month": "2004-10-01T00:00:00"}, {"date_time": "2004-10-10T09:45:00", "city": "nobel (canada)", "state": "on", "country": "ca", "object_shape": "unknown", "duration_seconds": 300.0, "duration": "5:00", "comments": "Floating Red Object", "occurance_date": "10/27/2004", "latitude": 45.416667, "longitude": -80.1, "year": 2004, "month": "2004-10-01T00:00:00"}, {"date_time": "2004-10-10T14:00:00", "city": "morgantown", "state": "wv", "country": "us", "object_shape": "circle", "duration_seconds": 10.0, "duration": "10 sec", "comments": "Solid round silver ball passing over at about 3000MSL.", "occurance_date": "5/24/2005", "latitude": 39.6294444, "longitude": -79.9561111, "year": 2004, "month": "2004-10-01T00:00:00"}, {"date_time": "2004-10-10T15:00:00", "city": "berkeley", "state": "ca", "country": "us", "object_shape": "unknown", "duration_seconds": 180.0, "duration": "3 minutes", "comments": "While driving my car in the mid afternoon of a day in the fall of 2004 on HYW 580 East-bound I had just crossed the San Rafael / Richmo", "occurance_date": "5/24/2005", "latitude": 37.8716667, "longitude": -122.2716667, "year": 2004, "month": "2004-10-01T00:00:00"}, {"date_time": "2004-10-10T15:00:00", "city": "rock island", "state": "il", "country": "us", "object_shape": "sphere", "duration_seconds": 3600.0, "duration": "1 hour", "comments": "The sky was clear  and the objects at times appeared to rotate slowly.", "occurance_date": "10/27/2004", "latitude": 41.5094444, "longitude": -90.5786111, "year": 2004, "month": "2004-10-01T00:00:00"}, {"date_time": "2004-10-10T15:20:00", "city": "kedainiai (lithuania)", "state": null, "country": null, "object_shape": "oval", "duration_seconds": 240.0, "duration": "4min", "comments": "6 oval light objects very quickly rounded under the dark cloud for a some minutes ((NUFORC Note:  Possible advertising lights??  PD))", "occurance_date": "10/27/2004", "latitude": 55.288131, "longitude": 23.957728, "year": 2004, "month": "2004-10-01T00:00:00"}, {"date_time": "2004-10-10T19:00:00", "city": "chateauqua", "state": "ny", "country": null, "object_shape": "formation", "duration_seconds": 1200.0, "duration": "20 min", "comments": "4 bright circles in a half rainbow formation with a longer bright strip at the top of the formation", "occurance_date": "10/27/2004", "latitude": 42.209774, "longitude": -79.466844, "year": 2004, "month": "2004-10-01T00:00:00"}, {"date_time": "2004-10-10T19:00:00", "city": "ripley", "state": "ny", "country": "us", "object_shape": "circle", "duration_seconds": 900.0, "duration": "15 min", "comments": "7 red/orange stationary objects appeared over Lake Erie on 10/10/04 for 15 minutes and then all disappeared at once.", "occurance_date": "10/27/2004", "latitude": 42.2669444, "longitude": -79.7108333, "year": 2004, "month": "2004-10-01T00:00:00"}, {"date_time": "2004-10-10T21:00:00", "city": "faribault", "state": "mn", "country": "us", "object_shape": "flash", "duration_seconds": 900.0, "duration": "1/2 hour", "comments": "Metor or craft descending then sudden flash of light", "occurance_date": "10/27/2004", "latitude": 44.295, "longitude": -93.2686111, "year": 2004, "month": "2004-10-01T00:00:00"}, {"date_time": "2004-10-10T21:00:00", "city": "mansfield", "state": "oh", "country": "us", "object_shape": "light", "duration_seconds": 7200.0, "duration": "a few hours", "comments": "Several UFO&#39s&#44 one bigger one flew right over the car.", "occurance_date": "10/27/2004", "latitude": 40.7583333, "longitude": -82.5155556, "year": 2004, "month": "2004-10-01T00:00:00"}, {"date_time": "2004-10-10T22:00:00", "city": "columbia", "state": "mo", "country": "us", "object_shape": "light", "duration_seconds": 60.0, "duration": "1 min", "comments": "A light moved across the sky in a zig zag way then straightened out and went straight out into space in a matter of seconds.", "occurance_date": "11/28/2007", "latitude": 38.9516667, "longitude": -92.3338889, "year": 2004, "month": "2004-10-01T00:00:00"}, {"date_time": "2004-10-10T23:30:00", "city": "gleason", "state": "wi", "country": "us", "object_shape": "sphere", "duration_seconds": 3000.0, "duration": "45-50 mins", "comments": "It was about 9:30PM my friend and I were going to go out deer shining with my step dads truck and my friends spotlight. We left his hou", "occurance_date": "9/2/2005", "latitude": 45.3088889, "longitude": -89.4963889, "year": 2004, "month": "2004-10-01T00:00:00"}, {"date_time": "2005-10-10T07:40:00", "city": "seattle", "state": "wa", "country": "us", "object_shape": "other", "duration_seconds": 60.0, "duration": "one + minutes", "comments": "round symetrical with roundish flat bottom shiny white colored low flying bigger than  a plane.", "occurance_date": "10/11/2005", "latitude": 47.6063889, "longitude": -122.3308333, "year": 2005, "month": "2005-10-01T00:00:00"}, {"date_time": "2005-10-10T09:00:00", "city": "apache junction", "state": "az", "country": "us", "object_shape": "other", "duration_seconds": 30.0, "duration": "30 seconds", "comments": "half-moon shaped objects that just winked out", "occurance_date": "10/11/2005", "latitude": 33.415, "longitude": -111.5488889, "year": 2005, "month": "2005-10-01T00:00:00"}, {"date_time": "2005-10-10T09:30:00", "city": "north miami beach", "state": "fl", "country": "us", "object_shape": "oval", "duration_seconds": 1800.0, "duration": "30 minutes", "comments": "i sent you an e-mail 2 days ago and really want to be contacted&#44 PLEASE  contact me asap&#44 I&#39m not crazy and nether is my wife&#44 please c", "occurance_date": "10/20/2005", "latitude": 25.9327778, "longitude": -80.1627778, "year": 2005, "month": "2005-10-01T00:00:00"}, {"date_time": "2005-10-10T14:45:00", "city": "los angeles", "state": "ca", "country": "us", "object_shape": "egg", "duration_seconds": 10.0, "duration": "10 seconds", "comments": "Egg UFO over Hollywood Hills and LAX in LOS ANGELES&#44 CA.", "occurance_date": "10/20/2005", "latitude": 34.0522222, "longitude": -118.2427778, "year": 2005, "month": "2005-10-01T00:00:00"}, {"date_time": "2005-10-10T20:00:00", "city": "loretto", "state": "pa", "country": "us", "object_shape": "triangle", "duration_seconds": 300.0, "duration": "5 minutes", "comments": "Dull red flash&#44 Triangular ship&#44 Vocal Noises", "occurance_date": "10/30/2006", "latitude": 40.5030556, "longitude": -78.6305556, "year": 2005, "month": "2005-10-01T00:00:00"}, {"date_time": "2005-10-10T20:00:00", "city": "newtown (uk/wales)", "state": null, "country": "gb", "object_shape": "formation", "duration_seconds": 360.0, "duration": "5/6 minutes", "comments": "red/orang lights dancing in the sky.", "occurance_date": "5/15/2006", "latitude": 52.516667, "longitude": -3.3, "year": 2005, "month": "2005-10-01T00:00:00"}, {"date_time": "2005-10-10T21:00:00", "city": "lewisburg", "state": "tn", "country": "us", "object_shape": "unknown", "duration_seconds": 240.0, "duration": "4 minutes", "comments": "Like a grouping of balloons with a slight glow to them", "occurance_date": "12/7/2006", "latitude": 35.4491667, "longitude": -86.7888889, "year": 2005, "month": "2005-10-01T00:00:00"}, {"date_time": "2005-10-10T21:30:00", "city": "north miami beach", "state": "fl", "country": "us", "object_shape": "other", "duration_seconds": 3600.0, "duration": "60 min", "comments": "a manta ray shaped object with orange and yellow lights flashing in", "occurance_date": "10/11/2005", "latitude": 25.9327778, "longitude": -80.1627778, "year": 2005, "month": "2005-10-01T00:00:00"}, {"date_time": "2005-10-10T22:08:00", "city": "east wenatchee", "state": "wa", "country": "us", "object_shape": "light", "duration_seconds": 1200.0, "duration": "20 min", "comments": "Strange light over East Wenatchee Washington", "occurance_date": "10/20/2005", "latitude": 47.4158333, "longitude": -120.2919444, "year": 2005, "month": "2005-10-01T00:00:00"}, {"date_time": "2005-10-10T23:00:00", "city": "hendersonville", "state": "nc", "country": "us", "object_shape": "light", "duration_seconds": 600.0, "duration": "10 minutes", "comments": "Last night&#44 October 10&#44 at about 11:00PM for about ten minutes I observed a peculiar point source light in the Eastern sky. It was at a", "occurance_date": "10/11/2005", "latitude": 35.3186111, "longitude": -82.4611111, "year": 2005, "month": "2005-10-01T00:00:00"}, {"date_time": "2005-10-10T23:07:00", "city": "brainerd", "state": "mn", "country": "us", "object_shape": "disk", "duration_seconds": 300.0, "duration": "5 min.", "comments": "A big lighted up silver saucer.", "occurance_date": "10/30/2006", "latitude": 46.3580556, "longitude": -94.2005556, "year": 2005, "month": "2005-10-01T00:00:00"}, {"date_time": "2006-10-10T01:00:00", "city": "pennington", "state": "tx", "country": "us", "object_shape": "diamond", "duration_seconds": 3600.0, "duration": "one hour", "comments": "IN form of diamond with multi colored lights that acted like disco light except one.  theone light was like a brite star and would resp", "occurance_date": "2/1/2007", "latitude": 31.1911111, "longitude": -95.2352778, "year": 2006, "month": "2006-10-01T00:00:00"}, {"date_time": "2006-10-10T05:00:00", "city": "san francisco", "state": "ca", "country": "us", "object_shape": "triangle", "duration_seconds": 600.0, "duration": "10 minutes", "comments": "black triangles were seen flying across the surface of the full moon", "occurance_date": "10/30/2006", "latitude": 37.775, "longitude": -122.4183333, "year": 2006, "month": "2006-10-01T00:00:00"}, {"date_time": "2006-10-10T12:37:00", "city": "blairsville", "state": "ga", "country": "us", "object_shape": "unknown", "duration_seconds": 10.0, "duration": "<10 sec.", "comments": "Intermittant streak by moon&#44 not seen on photo taken 10 seconds earlier.", "occurance_date": "10/30/2006", "latitude": 34.8761111, "longitude": -83.9583333, "year": 2006, "month": "2006-10-01T00:00:00"}, {"date_time": "2006-10-10T16:00:00", "city": "savannah", "state": "tn", "country": "us", "object_shape": "light", "duration_seconds": 600.0, "duration": "10 minutes", "comments": "weird light that moved in the sky", "occurance_date": "10/30/2006", "latitude": 35.2247222, "longitude": -88.2491667, "year": 2006, "month": "2006-10-01T00:00:00"}, {"date_time": "2006-10-10T16:00:00", "city": "waynesboro", "state": "va", "country": "us", "object_shape": "triangle", "duration_seconds": 600.0, "duration": "8-10 minutes", "comments": "Large...beautiful...and brighter than anything I&#39ve ever seen....How small I have felt since....", "occurance_date": "10/30/2006", "latitude": 38.0683333, "longitude": -78.8897222, "year": 2006, "month": "2006-10-01T00:00:00"}, {"date_time": "2006-10-10T19:00:00", "city": "unsure", "state": "ar", "country": null, "object_shape": "fireball", "duration_seconds": 2.0, "duration": "a few seconds", "comments": "Extreme sound with trails and orange red blue hues to it.  The trails were bright bright white.", "occurance_date": "12/7/2006", "latitude": 35.20105, "longitude": -91.831833, "year": 2006, "month": "2006-10-01T00:00:00"}, {"date_time": "2006-10-10T20:00:00", "city": "bray", "state": "ok", "country": "us", "object_shape": "other", "duration_seconds": 360.0, "duration": "6 mins", "comments": "Glowing V Shaped Object flying Low making no sound.", "occurance_date": "12/12/2009", "latitude": 34.6377778, "longitude": -97.8172222, "year": 2006, "month": "2006-10-01T00:00:00"}, {"date_time": "2006-10-10T21:47:00", "city": "plymouth (devonshire) (uk/england)", "state": null, "country": "gb", "object_shape": "formation", "duration_seconds": 120.0, "duration": "1-2 mins", "comments": "they were right above me very small almost like minni stars and they were circling round sommothing and came closer and further away an", "occurance_date": "10/30/2006", "latitude": 50.396389, "longitude": -4.138611, "year": 2006, "month": "2006-10-01T00:00:00"}, {"date_time": "2006-10-10T22:40:00", "city": "waycross", "state": "ga", "country": "us", "object_shape": "light", "duration_seconds": 120.0, "duration": "2 minutes", "comments": "Redish orange light viewed from Waycross &#44Ga. Moving Northwest and suddenly just goes out.", "occurance_date": "10/30/2006", "latitude": 31.2133333, "longitude": -82.3541667, "year": 2006, "month": "2006-10-01T00:00:00"}, {"date_time": "2006-10-10T22:50:00", "city": "wolfforth", "state": "tx", "country": "us", "object_shape": "disk", "duration_seconds": 300.0, "duration": "5 min", "comments": "Huge aircraft with diagnally aligned white lights moving slowly and loudly through the night.", "occurance_date": "10/30/2006", "latitude": 33.5058333, "longitude": -102.0086111, "year": 2006, "month": "2006-10-01T00:00:00"}, {"date_time": "2006-10-10T23:00:00", "city": "lyndhurst", "state": "oh", "country": "us", "object_shape": "unknown", "duration_seconds": 300.0, "duration": "5 minutes", "comments": "This is a follow up to my Feb. 16th&#44 1995 report.  This past Tuesday&#44 my wife and I AGAIN heard the same loud&#44 rumbling roar that we he", "occurance_date": "10/30/2006", "latitude": 41.52, "longitude": -81.4888889, "year": 2006, "month": "2006-10-01T00:00:00"}, {"date_time": "2007-10-10T01:00:00", "city": "lebanon", "state": "or", "country": "us", "object_shape": "light", "duration_seconds": 14400.0, "duration": "4 hours", "comments": "Small Orange-White &quot;star&quot; that moves around in circles&#44 up&#44 down&#44 and sideways fast in the night sky", "occurance_date": "11/28/2007", "latitude": 44.5366667, "longitude": -122.9058333, "year": 2007, "month": "2007-10-01T00:00:00"}, {"date_time": "2007-10-10T01:00:00", "city": "stockbridge", "state": "ga", "country": "us", "object_shape": "changing", "duration_seconds": 3600.0, "duration": "1 hour", "comments": "i was abducted", "occurance_date": "11/28/2007", "latitude": 33.5441667, "longitude": -84.2338889, "year": 2007, "month": "2007-10-01T00:00:00"}, {"date_time": "2007-10-10T04:00:00", "city": "denver", "state": "co", "country": "us", "object_shape": "changing", "duration_seconds": 2700.0, "duration": "45 minutes+", "comments": "Huge lighted cluster in the eastern sky.  ((NUFORC Note:  Sighting of Venus.  PD))", "occurance_date": "11/28/2007", "latitude": 39.7391667, "longitude": -104.9841667, "year": 2007, "month": "2007-10-01T00:00:00"}, {"date_time": "2007-10-10T04:30:00", "city": "jacksonville", "state": "fl", "country": "us", "object_shape": "sphere", "duration_seconds": 30.0, "duration": "30 seconds", "comments": "half mile from de saint Jhons River&#44 low flying sphere&#44   at slow speed without noise", "occurance_date": "3/4/2008", "latitude": 30.3319444, "longitude": -81.6558333, "year": 2007, "month": "2007-10-01T00:00:00"}, {"date_time": "2007-10-10T06:00:00", "city": "indio", "state": "ca", "country": "us", "object_shape": "oval", "duration_seconds": 600.0, "duration": "10 min.", "comments": "Observed 2 white clouds of identical shape in clear blue shy with object becoming visible beneath one cloud.", "occurance_date": "6/9/2009", "latitude": 33.7205556, "longitude": -116.2147222, "year": 2007, "month": "2007-10-01T00:00:00"}, {"date_time": "2007-10-10T13:00:00", "city": "owego", "state": "ny", "country": "us", "object_shape": "triangle", "duration_seconds": 10800.0, "duration": "3 hours", "comments": "triangle with 3 llights blinking. 500 Lights On Object0: Yes", "occurance_date": "11/28/2007", "latitude": 42.1033333, "longitude": -76.2625, "year": 2007, "month": "2007-10-01T00:00:00"}, {"date_time": "2007-10-10T18:33:00", "city": "downingtown", "state": "pa", "country": "us", "object_shape": "circle", "duration_seconds": 120.0, "duration": "1 to 1 1/2 minutes", "comments": "Star-like (but MUCH BRIGHTER AND LARGER) light west of D-town&#44 PA.  Seen against sunset.  ((NUFORC Note:  Contrail??  PD))", "occurance_date": "11/28/2007", "latitude": 40.0063889, "longitude": -75.7036111, "year": 2007, "month": "2007-10-01T00:00:00"}, {"date_time": "2007-10-10T19:00:00", "city": "austin", "state": "tx", "country": "us", "object_shape": "flash", "duration_seconds": 3.0, "duration": "3 seconds", "comments": "pulsing flash recurring at 2 second intervals 3 times along the same trajectory along 90 degrees of sky", "occurance_date": "11/28/2007", "latitude": 30.2669444, "longitude": -97.7427778, "year": 2007, "month": "2007-10-01T00:00:00"}, {"date_time": "2007-10-10T20:10:00", "city": "starrsville (covington)", "state": "ga", "country": "us", "object_shape": "sphere", "duration_seconds": 60.0, "duration": "appx. 1 minute", "comments": "MUFON GEORGIA FOLLOW-UP REPORT:  Joint NUFORC-MUFON of Georgia Investigation-Fiery Sphere Shaped Object", "occurance_date": "6/12/2008", "latitude": 33.5394444, "longitude": -83.8194444, "year": 2007, "month": "2007-10-01T00:00:00"}, {"date_time": "2007-10-10T20:24:00", "city": "west palm beach florida", "state": "fl", "country": null, "object_shape": "fireball", "duration_seconds": 180.0, "duration": "approx 3 mins", "comments": "Burning ball across the sky over central/south florida. Strobing effect towards end of the final view of object.", "occurance_date": "11/28/2007", "latitude": 26.705621, "longitude": -80.03643, "year": 2007, "month": "2007-10-01T00:00:00"}, {"date_time": "2007-10-10T20:30:00", "city": "conyers", "state": "ga", "country": "us", "object_shape": "unknown", "duration_seconds": 3600.0, "duration": "1 hour", "comments": "Craft seen falling and dissapears into thin air.  ((NUFORC Note:  Missile launch??  We have no explanation for the aircraft.  PD))", "occurance_date": "11/28/2007", "latitude": 33.6675, "longitude": -84.0177778, "year": 2007, "month": "2007-10-01T00:00:00"}, {"date_time": "2007-10-10T20:55:00", "city": "vero beach", "state": "fl", "country": "us", "object_shape": "unknown", "duration_seconds": 30.0, "duration": "30 seconds", "comments": "Shooting star without red globe burn-out or descent maintains steady Southerly trajectory.  ((NUFORC Note:  Missile launch??  PD))", "occurance_date": "11/28/2007", "latitude": 27.6383333, "longitude": -80.3975, "year": 2007, "month": "2007-10-01T00:00:00"}, {"date_time": "2007-10-10T21:00:00", "city": "jensen beach", "state": "fl", "country": "us", "object_shape": "oval", "duration_seconds": 120.0, "duration": "2 mins", "comments": "A oval shaped object hovered and shot through the sky with very bright lights and then vanished. 500 Lights On Object0: Yes", "occurance_date": "11/28/2007", "latitude": 27.2541667, "longitude": -80.23, "year": 2007, "month": "2007-10-01T00:00:00"}, {"date_time": "2007-10-10T21:43:00", "city": "houston", "state": "tx", "country": "us", "object_shape": "formation", "duration_seconds": 35.0, "duration": "35 seconds", "comments": "Large Boomerang formation of lights over Houston&#44 Beltway 8 &amp; Westheimer moving north to south 10/10/07&#44 9:43 PM.", "occurance_date": "11/28/2007", "latitude": 29.7630556, "longitude": -95.3630556, "year": 2007, "month": "2007-10-01T00:00:00"}, {"date_time": "2007-10-10T22:00:00", "city": "duluth", "state": "mn", "country": "us", "object_shape": "light", "duration_seconds": 600.0, "duration": "10 minutes", "comments": "Bright pulsating light over lake superior.", "occurance_date": "1/21/2008", "latitude": 46.7833333, "longitude": -92.1063889, "year": 2007, "month": "2007-10-01T00:00:00"}, {"date_time": "2007-10-10T22:00:00", "city": "fleming", "state": "co", "country": "us", "object_shape": "circle", "duration_seconds": 600.0, "duration": "10 minutes", "comments": "UFO SPOTTED&#44 FLEMING COLORADO", "occurance_date": "11/28/2007", "latitude": 40.68, "longitude": -102.8388889, "year": 2007, "month": "2007-10-01T00:00:00"}, {"date_time": "2007-10-10T22:00:00", "city": "grove city", "state": "pa", "country": "us", "object_shape": "unknown", "duration_seconds": 3600.0, "duration": "1:00:00", "comments": "Light pattern moving silently through rapid maneuvers over Grove City", "occurance_date": "1/21/2008", "latitude": 41.1577778, "longitude": -80.0888889, "year": 2007, "month": "2007-10-01T00:00:00"}, {"date_time": "2007-10-10T22:00:00", "city": "van alstyne", "state": "tx", "country": "us", "object_shape": "other", "duration_seconds": 4.0, "duration": "4 seconds", "comments": "large mass of tiny lights all clustered together in the shape of a large boomerang over eastern sky in north Texas.", "occurance_date": "11/28/2007", "latitude": 33.4213889, "longitude": -96.5769444, "year": 2007, "month": "2007-10-01T00:00:00"}, {"date_time": "2007-10-10T23:05:00", "city": "northglenn", "state": "co", "country": "us", "object_shape": "triangle", "duration_seconds": 15.0, "duration": "15 seconds", "comments": "Hovering triangular shape seen with flashing lights seen in Colorado", "occurance_date": "11/28/2007", "latitude": 39.8855556, "longitude": -104.9866667, "year": 2007, "month": "2007-10-01T00:00:00"}, {"date_time": "2007-10-10T23:20:00", "city": "stord (norway)", "state": null, "country": null, "object_shape": "light", "duration_seconds": 600.0, "duration": "10 min", "comments": "Thise could be an ETV case&#44 but it could also be helicopters or/and airplanes", "occurance_date": "1/21/2008", "latitude": 59.900209, "longitude": 5.282347, "year": 2007, "month": "2007-10-01T00:00:00"}, {"date_time": "2008-10-10T02:00:00", "city": "london (canada)", "state": "on", "country": "ca", "object_shape": "other", "duration_seconds": 120.0, "duration": "2 min. approx", "comments": "C shape with a T front over London ont on Oct 10&#44 2008 on a clear day around 2PM", "occurance_date": "6/9/2009", "latitude": 42.983333, "longitude": -81.25, "year": 2008, "month": "2008-10-01T00:00:00"}, {"date_time": "2008-10-10T02:00:00", "city": "north branch", "state": "mn", "country": "us", "object_shape": "light", "duration_seconds": 300.0, "duration": "5 min", "comments": "Lights at night&#44 shining into car and garage and around blinds", "occurance_date": "10/31/2008", "latitude": 45.5113889, "longitude": -92.98, "year": 2008, "month": "2008-10-01T00:00:00"}, {"date_time": "2008-10-10T02:00:00", "city": "slingerlands", "state": "ny", "country": "us", "object_shape": "circle", "duration_seconds": 240.0, "duration": "4 min", "comments": "Huge&#44 moon size&#44 orange&#44 bright&#44 almost complete circle", "occurance_date": "10/31/2008", "latitude": 42.6291667, "longitude": -73.865, "year": 2008, "month": "2008-10-01T00:00:00"}, {"date_time": "2008-10-10T04:00:00", "city": "carlin", "state": "nv", "country": "us", "object_shape": "disk", "duration_seconds": 600.0, "duration": "10 mins", "comments": "Ufo sighting in Carlin&#44 NV&#44 at the pilot truck stop. 500 Lights On Object0: Yes", "occurance_date": "7/19/2010", "latitude": 40.7138889, "longitude": -116.1030556, "year": 2008, "month": "2008-10-01T00:00:00"}, {"date_time": "2008-10-10T04:50:00", "city": "evansville", "state": "in", "country": "us", "object_shape": "formation", "duration_seconds": 600.0, "duration": "10 minutes+", "comments": "I saw a huge V-shaped object moving slowly and silently over the roof tops in my neighborhood.", "occurance_date": "10/31/2008", "latitude": 37.9747222, "longitude": -87.5558333, "year": 2008, "month": "2008-10-01T00:00:00"}, {"date_time": "2008-10-10T06:00:00", "city": "albany", "state": "ny", "country": "us", "object_shape": "oval", "duration_seconds": 45.0, "duration": "45 seconds", "comments": "I live Colonie&#44 New York&#44 a suburb of Albany.  I live within 4 miles of the Albany International Airport. Many  takeoff&#8217;s and landings", "occurance_date": "10/31/2008", "latitude": 42.6525, "longitude": -73.7566667, "year": 2008, "month": "2008-10-01T00:00:00"}, {"date_time": "2008-10-10T10:22:00", "city": "fremont", "state": "ca", "country": "us", "object_shape": "triangle", "duration_seconds": 60.0, "duration": "1 minute", "comments": "I saw a brightly lightes v shaped ufo while driving through fremont&#44ca.", "occurance_date": "10/31/2008", "latitude": 37.5483333, "longitude": -121.9875, "year": 2008, "month": "2008-10-01T00:00:00"}, {"date_time": "2008-10-10T18:00:00", "city": "yuma", "state": "az", "country": "us", "object_shape": "triangle", "duration_seconds": 900.0, "duration": "15 minutes", "comments": "Carousel in the sky on fire / pixalated triangle over Yuma&#44 AZ", "occurance_date": "10/10/2011", "latitude": 32.7252778, "longitude": -114.6236111, "year": 2008, "month": "2008-10-01T00:00:00"}, {"date_time": "2008-10-10T19:00:00", "city": "south bend", "state": "in", "country": "us", "object_shape": "light", "duration_seconds": 600.0, "duration": "10 minutes", "comments": "Glowing succession of flying objects on the horizon.", "occurance_date": "10/31/2008", "latitude": 41.6833333, "longitude": -86.25, "year": 2008, "month": "2008-10-01T00:00:00"}, {"date_time": "2008-10-10T20:00:00", "city": "la crescent", "state": "mn", "country": "us", "object_shape": "formation", "duration_seconds": 10.0, "duration": "10 seconds", "comments": "six strange lights in the sky over La Crescent MN", "occurance_date": "10/31/2008", "latitude": 43.8280556, "longitude": -91.3038889, "year": 2008, "month": "2008-10-01T00:00:00"}, {"date_time": "2008-10-10T20:00:00", "city": "moon township", "state": "pa", "country": null, "object_shape": "unknown", "duration_seconds": 120.0, "duration": "2 minutes", "comments": "unknown rectangular shaped aircraft with bright lights seen over Rt. 60 near Pittsburgh International Airport&#44 definitely NOT a plane", "occurance_date": "10/31/2008", "latitude": 40.516977, "longitude": -80.221348, "year": 2008, "month": "2008-10-01T00:00:00"}, {"date_time": "2008-10-10T20:00:00", "city": "philadelphia", "state": "pa", "country": "us", "object_shape": "oval", "duration_seconds": 60.0, "duration": "1 minute", "comments": "Silent&#44 oval&#44 bright white craft in yard.", "occurance_date": "7/4/2012", "latitude": 39.9522222, "longitude": -75.1641667, "year": 2008, "month": "2008-10-01T00:00:00"}, {"date_time": "2008-10-10T20:00:00", "city": "seattle", "state": "wa", "country": "us", "object_shape": "light", "duration_seconds": 180.0, "duration": "3 minutes", "comments": "Around 8:00 pm? I Went out side and looked up at the stars and I saw a light which I thought was a small faded star  until it started t", "occurance_date": "10/31/2008", "latitude": 47.6063889, "longitude": -122.3308333, "year": 2008, "month": "2008-10-01T00:00:00"}, {"date_time": "2008-10-10T20:40:00", "city": "pueblo", "state": "co", "country": "us", "object_shape": "light", "duration_seconds": 300.0, "duration": "5 minutes", "comments": "In the northwest sky&#44 there were about seven lights moving slowly and flashing in and out if an extremely strange fashion.", "occurance_date": "10/31/2008", "latitude": 38.2544444, "longitude": -104.6086111, "year": 2008, "month": "2008-10-01T00:00:00"}, {"date_time": "2008-10-10T21:30:00", "city": "cincinnati", "state": "oh", "country": "us", "object_shape": "oval", "duration_seconds": 900.0, "duration": "15 minutes", "comments": "12 ovel objects flying east to west orange and red at a slow speed then vanished", "occurance_date": "10/31/2008", "latitude": 39.1619444, "longitude": -84.4569444, "year": 2008, "month": "2008-10-01T00:00:00"}, {"date_time": "2008-10-10T22:00:00", "city": "san diego", "state": "ca", "country": "us", "object_shape": "disk", "duration_seconds": 30.0, "duration": "30 seconds", "comments": "low flying saucer in suburban area.  ((NUFORC Note:  Student report.  PD))", "occurance_date": "10/31/2008", "latitude": 32.7152778, "longitude": -117.1563889, "year": 2008, "month": "2008-10-01T00:00:00"}, {"date_time": "2008-10-10T22:30:00", "city": "madison", "state": "wi", "country": "us", "object_shape": "circle", "duration_seconds": 20.0, "duration": "20 secounds", "comments": "Tanslucent orange/yellow UFO in Madison WI", "occurance_date": "10/31/2008", "latitude": 43.0730556, "longitude": -89.4011111, "year": 2008, "month": "2008-10-01T00:00:00"}, {"date_time": "2008-10-10T23:15:00", "city": "coldwater", "state": "oh", "country": "us", "object_shape": "sphere", "duration_seconds": 60.0, "duration": "1 minute", "comments": "spherical in shape&#44 orange flames coming from the bottom&#44 completely silent&#44 moved fast and also hovered.", "occurance_date": "10/31/2008", "latitude": 40.4797222, "longitude": -84.6283333, "year": 2008, "month": "2008-10-01T00:00:00"}, {"date_time": "2009-10-10T12:00:00", "city": "crested butte", "state": "co", "country": "us", "object_shape": "egg", "duration_seconds": 60.0, "duration": "1min", "comments": "metallic egg shaped craft above crested butte&#44 CO.  Also have seen great amount of activity READ ME&#33", "occurance_date": "12/12/2009", "latitude": 38.8697222, "longitude": -106.9872222, "year": 2009, "month": "2009-10-01T00:00:00"}, {"date_time": "2009-10-10T12:42:00", "city": "tulsa", "state": "ok", "country": "us", "object_shape": "unknown", "duration_seconds": 6.0, "duration": "6 seconds", "comments": "In&#39t see nothing in the park", "occurance_date": "12/12/2009", "latitude": 36.1538889, "longitude": -95.9925, "year": 2009, "month": "2009-10-01T00:00:00"}, {"date_time": "2009-10-10T16:24:00", "city": "eagar", "state": "az", "country": "us", "object_shape": "unknown", "duration_seconds": 180.0, "duration": "2-3 minutes", "comments": "Second sighting was only 150 feet away.  Observations between two sightings.", "occurance_date": "12/12/2011", "latitude": 34.1111111, "longitude": -109.2908333, "year": 2009, "month": "2009-10-01T00:00:00"}, {"date_time": "2009-10-10T19:30:00", "city": "suffolk", "state": "va", "country": "us", "object_shape": "unknown", "duration_seconds": 900.0, "duration": "15 minutes", "comments": "It looked sort of lime green.  It appeared to have an odd texture.  It had a dimples on its surface.  It was not smooth at all.  It jus", "occurance_date": "12/12/2009", "latitude": 36.7280556, "longitude": -76.5838889, "year": 2009, "month": "2009-10-01T00:00:00"}, {"date_time": "2009-10-10T20:30:00", "city": "anaheim", "state": "ca", "country": "us", "object_shape": "light", "duration_seconds": 300.0, "duration": "5 mins", "comments": "UFO over Disneyland.", "occurance_date": "12/12/2009", "latitude": 33.8352778, "longitude": -117.9136111, "year": 2009, "month": "2009-10-01T00:00:00"}, {"date_time": "2009-10-10T20:45:00", "city": "wilmington", "state": "nc", "country": "us", "object_shape": "light", "duration_seconds": 600.0, "duration": "10minutes", "comments": "Two lights seen with a lighting of something strobe like near the ground.", "occurance_date": "12/12/2009", "latitude": 34.2255556, "longitude": -77.945, "year": 2009, "month": "2009-10-01T00:00:00"}, {"date_time": "2009-10-10T21:00:00", "city": "leesburg", "state": "va", "country": "us", "object_shape": "disk", "duration_seconds": 300.0, "duration": "less than 5 minutes", "comments": "Two large glowing amber/dark orangish colored circular disks-not a sound-", "occurance_date": "11/21/2010", "latitude": 39.1155556, "longitude": -77.5638889, "year": 2009, "month": "2009-10-01T00:00:00"}, {"date_time": "2009-10-10T23:00:00", "city": "michigan city", "state": "in", "country": "us", "object_shape": "changing", "duration_seconds": 900.0, "duration": "15 minutes", "comments": "black object that seemed to impode into a sphere and vanish&#44 only to reappear in the same shape and move location", "occurance_date": "12/12/2009", "latitude": 41.7075, "longitude": -86.895, "year": 2009, "month": "2009-10-01T00:00:00"}, {"date_time": "2009-10-10T23:23:00", "city": "cupertino", "state": "ca", "country": "us", "object_shape": "light", "duration_seconds": 180.0, "duration": "3 minutes", "comments": "Bright red light object made random moves horizontally and floated for a while and then went up vertically.", "occurance_date": "12/12/2009", "latitude": 37.3230556, "longitude": -122.0311111, "year": 2009, "month": "2009-10-01T00:00:00"}, {"date_time": "2010-10-10T01:00:00", "city": "orchard park", "state": "ny", "country": "us", "object_shape": "light", "duration_seconds": 7200.0, "duration": "a few hours", "comments": "Xmas colored rotating lights.  ((NUFORC Note:  Twinkling stars??  PD))", "occurance_date": "1/5/2011", "latitude": 42.7675, "longitude": -78.7441667, "year": 2010, "month": "2010-10-01T00:00:00"}, {"date_time": "2010-10-10T02:30:00", "city": "harrisburg", "state": "pa", "country": "us", "object_shape": "circle", "duration_seconds": 240.0, "duration": "4  minutes", "comments": "possible UFO sighting", "occurance_date": "11/21/2010", "latitude": 40.2736111, "longitude": -76.8847222, "year": 2010, "month": "2010-10-01T00:00:00"}, {"date_time": "2010-10-10T03:00:00", "city": "euclid", "state": "oh", "country": "us", "object_shape": "circle", "duration_seconds": 180.0, "duration": "3 minutes", "comments": "2 objects blinking red and white&#44 disappeared into the sky&#44 after hovering around sky for 3 minutes.( over lake erie", "occurance_date": "11/21/2010", "latitude": 41.5930556, "longitude": -81.5269444, "year": 2010, "month": "2010-10-01T00:00:00"}, {"date_time": "2010-10-10T08:30:00", "city": "starr", "state": "sc", "country": "us", "object_shape": "formation", "duration_seconds": 600.0, "duration": "5-10 mins", "comments": "Strange orange lights in the night sky", "occurance_date": "11/21/2010", "latitude": 34.3769444, "longitude": -82.6958333, "year": 2010, "month": "2010-10-01T00:00:00"}, {"date_time": "2010-10-10T12:00:00", "city": "greenwich", "state": "ct", "country": "us", "object_shape": "light", "duration_seconds": 240.0, "duration": "4 mins", "comments": "&quot;Star&quot; like objects during clear day light in formation.", "occurance_date": "11/21/2010", "latitude": 41.0263889, "longitude": -73.6288889, "year": 2010, "month": "2010-10-01T00:00:00"}, {"date_time": "2010-10-10T13:00:00", "city": "north charleston", "state": "sc", "country": "us", "object_shape": "light", "duration_seconds": 180.0, "duration": "3 minutes", "comments": "Object(s) visible 3 times at same place in the sky at during day in Chas&#44 SC", "occurance_date": "7/4/2012", "latitude": 32.8544444, "longitude": -79.975, "year": 2010, "month": "2010-10-01T00:00:00"}, {"date_time": "2010-10-10T15:00:00", "city": "san francisco airport", "state": "ca", "country": null, "object_shape": "triangle", "duration_seconds": 300.0, "duration": "5 min.", "comments": "White or light grey colored and leaving red/orange contrails on a bright blue sky.", "occurance_date": "9/30/2013", "latitude": 37.615223, "longitude": -122.389979, "year": 2010, "month": "2010-10-01T00:00:00"}, {"date_time": "2010-10-10T16:30:00", "city": "springfield", "state": "va", "country": "us", "object_shape": "cigar", "duration_seconds": 15.0, "duration": "15 secs", "comments": "Metalic cigar shaped object sighted during lull in a storm in Springfield&#44 VA", "occurance_date": "11/21/2010", "latitude": 38.7891667, "longitude": -77.1875, "year": 2010, "month": "2010-10-01T00:00:00"}, {"date_time": "2010-10-10T17:10:00", "city": "bridgeport", "state": "ct", "country": "us", "object_shape": "light", "duration_seconds": 600.0, "duration": "five to ten minutes", "comments": "Saw a light in the sky fading in and out over Bridgeport&#44 CT.", "occurance_date": "11/21/2010", "latitude": 41.1669444, "longitude": -73.2052778, "year": 2010, "month": "2010-10-01T00:00:00"}, {"date_time": "2010-10-10T18:30:00", "city": "clackamas", "state": "or", "country": "us", "object_shape": "triangle", "duration_seconds": 120.0, "duration": "1-2minutes", "comments": "triangular ufo sighting in oregon 10-10-10", "occurance_date": "11/21/2010", "latitude": 45.4077778, "longitude": -122.5691667, "year": 2010, "month": "2010-10-01T00:00:00"}, {"date_time": "2010-10-10T20:00:00", "city": "san angelo", "state": "tx", "country": "us", "object_shape": "oval", "duration_seconds": 60.0, "duration": "1 minute", "comments": "I was coming back from the grocery store around 8:30 pm when I noticed a large orange glowing object in the sky above my neighbors hous", "occurance_date": "11/21/2010", "latitude": 31.4636111, "longitude": -100.4366667, "year": 2010, "month": "2010-10-01T00:00:00"}, {"date_time": "2010-10-10T20:20:00", "city": "windsor", "state": "ct", "country": "us", "object_shape": "fireball", "duration_seconds": 5.0, "duration": "5 seconds", "comments": "Bus sized fireball object over 91 about 3-400 ft up going about 150 mph at a downward 20 degree angle.", "occurance_date": "5/2/2014", "latitude": 41.8525, "longitude": -72.6441667, "year": 2010, "month": "2010-10-01T00:00:00"}, {"date_time": "2010-10-10T20:45:00", "city": "sterling", "state": "il", "country": "us", "object_shape": "cylinder", "duration_seconds": 600.0, "duration": "10min", "comments": "It had rows of white lights with red lights pulsating in between them", "occurance_date": "11/21/2010", "latitude": 41.7886111, "longitude": -89.6961111, "year": 2010, "month": "2010-10-01T00:00:00"}, {"date_time": "2010-10-10T21:00:00", "city": "everett", "state": "wa", "country": "us", "object_shape": "other", "duration_seconds": 30.0, "duration": "30 seconds", "comments": "crown shaped object with two orange lights over everett wa", "occurance_date": "11/21/2010", "latitude": 47.9791667, "longitude": -122.2008333, "year": 2010, "month": "2010-10-01T00:00:00"}, {"date_time": "2010-10-10T21:00:00", "city": "kykotsmovi", "state": "az", "country": "us", "object_shape": "disk", "duration_seconds": 7200.0, "duration": "2 hours", "comments": "We saw  what seem to be a space craft in the eastern sky of northern AZ&#44 on 10-10-10.", "occurance_date": "1/31/2011", "latitude": 35.8752778, "longitude": -110.6197222, "year": 2010, "month": "2010-10-01T00:00:00"}, {"date_time": "2010-10-10T21:30:00", "city": "albany", "state": "ny", "country": "us", "object_shape": "circle", "duration_seconds": 10.0, "duration": "10 seconds", "comments": "Circle of light SUNY Albany.", "occurance_date": "8/30/2013", "latitude": 42.6525, "longitude": -73.7566667, "year": 2010, "month": "2010-10-01T00:00:00"}, {"date_time": "2010-10-10T22:30:00", "city": "garden grove", "state": "ca", "country": "us", "object_shape": "egg", "duration_seconds": 7200.0, "duration": "2 hours", "comments": "Blue Light in Garden Grove", "occurance_date": "11/21/2010", "latitude": 33.7738889, "longitude": -117.9405556, "year": 2010, "month": "2010-10-01T00:00:00"}, {"date_time": "2010-10-10T23:00:00", "city": "miami", "state": "fl", "country": "us", "object_shape": "changing", "duration_seconds": 1200.0, "duration": "approx. 20 mins", "comments": "Bright lights hovering and going in and out of orchestrated formations", "occurance_date": "11/21/2010", "latitude": 25.7738889, "longitude": -80.1938889, "year": 2010, "month": "2010-10-01T00:00:00"}, {"date_time": "2011-10-10T00:00:00", "city": "troy", "state": "ny", "country": "us", "object_shape": "triangle", "duration_seconds": 7200.0, "duration": "2 hours", "comments": "Red&#44 green &amp; orange blinking triangle formation.  ((NUFORC Note:  Probable sighting of a twinkling star&#44 possibly Sirius.  PD))", "occurance_date": "10/10/2011", "latitude": 42.7283333, "longitude": -73.6922222, "year": 2011, "month": "2011-10-01T00:00:00"}, {"date_time": "2011-10-10T01:00:00", "city": "farmington", "state": "nm", "country": "us", "object_shape": "circle", "duration_seconds": 300.0, "duration": "5 minutes", "comments": "Single reddish circle  in the sky that wasn&#39t jet nor satelitte", "occurance_date": "8/30/2013", "latitude": 36.7280556, "longitude": -108.2180556, "year": 2011, "month": "2011-10-01T00:00:00"}, {"date_time": "2011-10-10T02:00:00", "city": "prescott valley", "state": "az", "country": "us", "object_shape": "other", "duration_seconds": 300.0, "duration": "hours", "comments": "Craft boomerang shape.2:00am duration hours.  ((NUFORC Note:  Probable sighting of a twinkling star&#44 possibly Sirius.  PD))", "occurance_date": "10/10/2011", "latitude": 34.61, "longitude": -112.315, "year": 2011, "month": "2011-10-01T00:00:00"}, {"date_time": "2011-10-10T10:30:00", "city": "ashville", "state": "ny", "country": "us", "object_shape": "circle", "duration_seconds": 60.0, "duration": "1 minute", "comments": "Amber object in night sky during full moon&#44 or the day before full moon", "occurance_date": "10/19/2011", "latitude": 42.0963889, "longitude": -79.3758333, "year": 2011, "month": "2011-10-01T00:00:00"}, {"date_time": "2011-10-10T14:00:00", "city": "epsom (surrey) (uk/england)", "state": null, "country": "gb", "object_shape": "oval", "duration_seconds": 300.0, "duration": "5 mins", "comments": "Flying beer barrel shaped metallic object", "occurance_date": "12/12/2011", "latitude": 51.316667, "longitude": -0.266667, "year": 2011, "month": "2011-10-01T00:00:00"}, {"date_time": "2011-10-10T14:30:00", "city": "north kingstown", "state": "ri", "country": "us", "object_shape": "oval", "duration_seconds": 40.0, "duration": "40 sec", "comments": "Bright oval object in sky", "occurance_date": "10/25/2011", "latitude": 41.55, "longitude": -71.4666667, "year": 2011, "month": "2011-10-01T00:00:00"}, {"date_time": "2011-10-10T15:00:00", "city": "groton", "state": "ct", "country": "us", "object_shape": "disk", "duration_seconds": 5.0, "duration": "less than 5 seconds", "comments": "Small shiny object seen in sky while driving on clear day&#44 looked back for a 3rd time and it was gone.", "occurance_date": "10/10/2011", "latitude": 41.35, "longitude": -72.0788889, "year": 2011, "month": "2011-10-01T00:00:00"}, {"date_time": "2011-10-10T18:15:00", "city": "peabody-saugus", "state": "ma", "country": null, "object_shape": "flash", "duration_seconds": 2700.0, "duration": "45 minutes", "comments": "Flashing light in the sky as airplanes flew by.", "occurance_date": "10/19/2011", "latitude": 42.468164, "longitude": -71.014118, "year": 2011, "month": "2011-10-01T00:00:00"}, {"date_time": "2011-10-10T19:00:00", "city": "mechanicsville", "state": "va", "country": "us", "object_shape": "light", "duration_seconds": 300.0, "duration": "5 minutes", "comments": "Three orange lights flying in unison", "occurance_date": "10/19/2011", "latitude": 37.6086111, "longitude": -77.3736111, "year": 2011, "month": "2011-10-01T00:00:00"}, {"date_time": "2011-10-10T19:30:00", "city": "murfeesboro/smyrna", "state": "tn", "country": null, "object_shape": null, "duration_seconds": 2700.0, "duration": "30-45 minutes", "comments": "Multi color oblect over Smyrna/Murfreesboro 10/10/11", "occurance_date": "10/19/2011", "latitude": 35.947474, "longitude": -86.488367, "year": 2011, "month": "2011-10-01T00:00:00"}, {"date_time": "2011-10-10T20:00:00", "city": "hamilton (canada)", "state": "on", "country": "ca", "object_shape": "flash", "duration_seconds": 4.0, "duration": "2-4 seconds", "comments": "Strange flash in the sky", "occurance_date": "10/19/2011", "latitude": 43.25, "longitude": -79.833333, "year": 2011, "month": "2011-10-01T00:00:00"}, {"date_time": "2011-10-10T20:00:00", "city": "middletown", "state": "ct", "country": "us", "object_shape": "fireball", "duration_seconds": 1200.0, "duration": "15-20 minutes", "comments": "Fireball Spinning Orange UFO", "occurance_date": "10/19/2011", "latitude": 41.5622222, "longitude": -72.6511111, "year": 2011, "month": "2011-10-01T00:00:00"}, {"date_time": "2011-10-10T21:00:00", "city": "lakewood", "state": "oh", "country": "us", "object_shape": "fireball", "duration_seconds": 60.0, "duration": "1 minute", "comments": "Orange light flies overhead and turns black as it passed silently.", "occurance_date": "12/12/2011", "latitude": 41.4819444, "longitude": -81.7983333, "year": 2011, "month": "2011-10-01T00:00:00"}, {"date_time": "2011-10-10T21:00:00", "city": "york", "state": "pa", "country": "us", "object_shape": "circle", "duration_seconds": 15.0, "duration": "15 seconds", "comments": "BRIGHT LIT ORB SPEEDS ACROSS S.CENTRAL PA. SKY&#44 MAKING NO SOUND&#44 THEN DISAPPEARS", "occurance_date": "10/19/2011", "latitude": 39.9625, "longitude": -76.7280556, "year": 2011, "month": "2011-10-01T00:00:00"}, {"date_time": "2011-10-10T21:55:00", "city": "north platte", "state": "ne", "country": "us", "object_shape": "circle", "duration_seconds": 3.0, "duration": "3 seconds", "comments": "Object over North Platte Nebraska", "occurance_date": "12/12/2011", "latitude": 41.1238889, "longitude": -100.765, "year": 2011, "month": "2011-10-01T00:00:00"}, {"date_time": "2011-10-10T23:00:00", "city": "waynesville", "state": "oh", "country": "us", "object_shape": "triangle", "duration_seconds": 90.0, "duration": "1:30", "comments": "Flying triangle by Waynesville&#44 Ohio", "occurance_date": "10/19/2011", "latitude": 39.5297222, "longitude": -84.0866667, "year": 2011, "month": "2011-10-01T00:00:00"}, {"date_time": "2012-10-10T10:15:00", "city": "bridgeport", "state": "ct", "country": "us", "object_shape": "circle", "duration_seconds": 630.0, "duration": "10:30", "comments": "A Bright light that is a UFO", "occurance_date": "10/30/2012", "latitude": 41.1669444, "longitude": -73.2052778, "year": 2012, "month": "2012-10-01T00:00:00"}, {"date_time": "2012-10-10T15:00:00", "city": "san francisco airport", "state": "ca", "country": null, "object_shape": "triangle", "duration_seconds": 300.0, "duration": "5 minutes", "comments": "San Francisco International Airport         afternoon      about  5minutes       super clear conditions", "occurance_date": "9/30/2013", "latitude": 37.615223, "longitude": -122.389979, "year": 2012, "month": "2012-10-01T00:00:00"},